"","stid","station_name","lat","lon","elev","begints","iem_network"
"1","ABBA1","Abbeville",31.5702,-85.2483,132.81348,"2011-10-18 00:00","AL_COOP"
"2","ADDA1","ADDISON",34.2031,-87.1814,242,"2010-12-08 00:00","AL_COOP"
"3","TUSA1","AIR CRASH FIRE DEPT",33.2222,-87.6092,50,"2010-12-07 00:00","AL_COOP"
"4","EET","ALABASTER SHELBY CO AP ASOS",33.17835,-86.78178,172.5168,"2011-01-24 00:00","AL_COOP"
"5","ALBA1","ALBERTA",32.2389,-87.4267,67,"2010-12-06 00:00","AL_COOP"
"6","LCXA1","AL COURTLAND 2 WSW",34.6602,-87.3462,173,"2010-12-07 00:00","AL_COOP"
"7","CUXA1","AL CULLMAN 3 ENE",34.1954,-86.7963,243,"2010-12-07 00:00","AL_COOP"
"8","ALXA1","ALEXANDER CITY",32.9453,-85.9481,224,"2010-12-08 00:00","AL_COOP"
"9","GUXA1","AL GUNTERSVILLE 2 SW",34.3337,-86.3156,187,"2010-12-07 00:00","AL_COOP"
"10","ALCA1","Aliceville",33.1394,-88.1269,54.304333,"2011-05-01 00:00","AL_COOP"
"11","AVLA1","ALICEVILLE LOCK AND DAM",33.21,-88.2878,44,"2010-12-01 00:00","AL_COOP"
"12","MSXA1","AL MUSCLE SHOALS 2 N",34.7728,-87.6399,168,"2010-12-07 00:00","AL_COOP"
"13","RUXA1","AL RUSSELLVILLE 4 SSE",34.4535,-87.7104,218,"2010-12-07 00:00","AL_COOP"
"14","ANDA1","ANDERSON",34.9093,-87.2746,236,"2010-12-08 00:00","AL_COOP"
"15","ARKA1","Arkadelphia",33.9406,-87.1078,109.97257,"2010-12-07 00:00","AL_COOP"
"16","ALDA1","ASHLAND",33.2836,-85.7919,303,"2010-12-02 00:00","AL_COOP"
"17","AHDA1","Ashland 4NNW",33.3205,-85.8608,453.92273,"2018-12-01 00:00","AL_COOP"
"18","ASVA1","Ashville 4SW",33.7922,-86.3044,180.344,"2017-12-01 00:00","AL_COOP"
"19","CLTA1","AT Lay Dam",32.965,-86.5175,118.941,"2011-01-14 00:00","AL_COOP"
"20","VRBA1","AT Mitchell Dam",32.8,-86.45,125.29502,"2011-01-14 00:00","AL_COOP"
"21","FHPA1","AUBURN UNIV EXP STN",30.5467,-87.8808,44,"2010-12-08 00:00","AL_COOP"
"22","BLDA1","BANKHEAD LOCK AND DAM",33.4528,-87.3572,75,"2010-12-01 00:00","AL_COOP"
"23","BHFA1","BANKHEAD NATIONAL FOREST",34.3441,-87.3375,302,"2010-12-07 00:00","AL_COOP"
"24","BAYA1","BAY MINETTE",30.8842,-87.7875,88,"2010-11-06 00:00","AL_COOP"
"25","BLMA1","BELLE MINA 2 N",34.6908,-86.8825,186,"2010-12-07 00:00","AL_COOP"
"26","BRYA1","BERRY",33.6156,-87.6075,116,"2010-11-01 00:00","AL_COOP"
"27","BCDA1","BIG CREEK DAM",30.7208,-88.3042,37,"2010-12-08 00:00","AL_COOP"
"28","BLLA1","BILLINGSLEY",32.6731,-86.6653,146,"2010-12-01 00:00","AL_COOP"
"29","BAAA1","Birmingham 5NE",33.5651,-86.742,190,"2022-01-02 00:00","AL_COOP"
"30","BOZA1","Boaz",34.2008,-86.1633,329.85635,"2010-12-01 00:00","AL_COOP"
"31","BAZA1","BOAZ-MT VERNON",34.2766,-85.8141,388,"2010-12-08 00:00","AL_COOP"
"32","BWTA1","BREWTON",31.0578,-87.0542,33,"2010-11-17 00:00","AL_COOP"
"33","BRPA1","BRIDGEPORT 5 NW",34.9786,-85.8008,237,"2010-12-02 00:00","AL_COOP"
"34","BFDA1","Brierfield 2W",33.0382,-86.9478,120.09692,"2018-05-05 00:00","AL_COOP"
"35","BRUA1","BRUNDIDGE",31.7103,-85.8211,143,"2010-11-01 00:00","AL_COOP"
"36","CHTA1","CAHABA PUMP HOUSE",33.4514,-86.7153,151,"2010-12-08 00:00","AL_COOP"
"37","CLRA1","CALERA",33.1106,-86.7461,167,"2010-12-08 00:00","AL_COOP"
"38","CRHA1","CARBON HILL",33.8925,-87.5283,149,"2010-12-05 00:00","AL_COOP"
"39","CTRA1","CENTRE",34.1503,-85.7017,173,"2010-12-03 00:00","AL_COOP"
"40","CENA1","CENTREVILLE",32.8661,-87.2383,79,"2010-12-08 00:00","AL_COOP"
"41","CHAA1","Chatom",31.4711,-88.2506,62.696022,"2012-03-01 00:00","AL_COOP"
"42","CHLA1","Childersburg Water Plant",33.2822,-86.3436,125.97313,"2010-12-01 00:00","AL_COOP"
"43","BSMA1","CITY SEWAGE PLT",33.3939,-87.0069,134,"2010-12-08 00:00","AL_COOP"
"44","CLNA1","CLANTON",32.8206,-86.6525,189,"2010-12-08 00:00","AL_COOP"
"45","CLYA1","CLAYTON",31.8844,-85.4789,137,"2010-12-08 00:00","AL_COOP"
"46","WINA1","COASTAL PLAIN EXP STN",33.9111,-87.8475,166,"2010-12-06 00:00","AL_COOP"
"47","CODA1","CODEN",30.3878,-88.2281,11,"2010-12-07 00:00","AL_COOP"
"48","DADA1","Dadeville No 2",32.8622,-85.7358,226.01204,"2010-12-02 00:00","AL_COOP"
"49","DAUA1","DAUPHIN ISLAND",30.2511,-88.0792,1.3863902,"2010-12-05 00:00","AL_COOP"
"50","DCTA1","DECATUR 5 SE",34.5569,-86.9502,172,"2010-12-03 00:00","AL_COOP"
"51","DORA1","DORA",33.7375,-87.0811,146,"2010-12-08 00:00","AL_COOP"
"52","DOTA1","DOTHAN",31.1941,-85.3708,106,"2010-12-07 00:00","AL_COOP"
"53","ENTA1","ENTERPRISE 5NNW",31.3836,-85.9013,133,"2010-12-08 00:00","AL_COOP"
"54","EVRA1","EVERGREEN",31.4447,-86.9531,105,"2010-11-02 00:00","AL_COOP"
"55","BRWA1","EXP STN",31.1414,-87.0492,55,"2010-12-03 00:00","AL_COOP"
"56","FYTA1","FAYETTE",33.6847,-87.8219,100,"2010-12-07 00:00","AL_COOP"
"57","FSRA1","Fisher Crossroads",34.4843,-85.6105,473.216,"2013-05-09 00:00","AL_COOP"
"58","FHSA1","Florence - North",34.8405,-87.6703,164.1142,"2012-06-01 00:00","AL_COOP"
"59","FOPA1","FORT PAYNE",34.4406,-85.7236,278,"2010-11-12 00:00","AL_COOP"
"60","GADA1","GADSDEN WATER WORKS",34.0219,-85.9878,160,"2010-11-07 00:00","AL_COOP"
"61","GNSA1","GAINESVILLE",32.8347,-88.1342,34,"2010-12-07 00:00","AL_COOP"
"62","BONA1","GASQUE/BONSECOUR WMA",30.2528,-87.8125,1.9598194,"2010-12-07 00:00","AL_COOP"
"63","GVAA1","GENEVA NO. 2",31.0383,-85.8708,41,"2010-12-08 00:00","AL_COOP"
"64","GORA1","Gorgas - AL Power",33.65,-87.2,80.99732,"2012-03-20 00:00","AL_COOP"
"65","GREA1","Greensboro",32.7017,-87.5808,81.94911,"2011-10-01 00:00","AL_COOP"
"66","GVLA1","GREENVILLE",31.7947,-86.6147,106,"2010-11-02 00:00","AL_COOP"
"67","GUNA1","GUNTERSVILLE",34.3344,-86.3297,191,"2010-11-06 00:00","AL_COOP"
"68","GUTA1","Guntersville Water Plant",34.3347,-86.3294,189.72096,"2011-09-01 00:00","AL_COOP"
"69","HVLA1","Haleyville",34.2311,-87.6347,283.32413,"2011-09-01 00:00","AL_COOP"
"70","HAMA1","HAMILTON",34.0967,-87.9914,136,"2010-12-09 00:00","AL_COOP"
"71","HNCA1","HANCEVILLE",34.0674,-86.7918,181,"2010-12-08 00:00","AL_COOP"
"72","HDLA1","HEADLAND",31.3625,-85.3397,109,"2010-11-24 00:00","AL_COOP"
"73","HELA1","HELENA",33.2725,-85.8336,344,"2010-12-07 00:00","AL_COOP"
"74","SHLA1","HELFIN",33.6472,-85.6344,307,"2010-12-07 00:00","AL_COOP"
"75","HHAA1","Highland Home no2",31.9475,-86.3134,174.58258,"2012-07-13 00:00","AL_COOP"
"76","HGHA1","HIGHTOWER",33.5172,-85.3781,331,"2010-12-02 00:00","AL_COOP"
"77","HTAA1","HOLLY TREE",34.7995,-86.2677,190,"2010-12-08 00:00","AL_COOP"
"78","TCLA1","HOLT LOCK AND DAM",33.2533,-87.45,51,"2010-12-07 00:00","AL_COOP"
"79","HOPA1","Hope Hull 3S",32.2305,-86.3472,71.427185,"2017-10-01 00:00","AL_COOP"
"80","SWHA1","Huntsville SW",34.6347,-86.7272,179.22044,"2013-04-09 00:00","AL_COOP"
"81","HRTA1","HURTSBORO",32.2427,-85.4152,113,"2010-12-08 00:00","AL_COOP"
"82","IDRA1","IDER",34.7216,-85.6605,462,"2010-12-08 00:00","AL_COOP"
"83","JAXA1","JACKSONVILLE ST UNIV",33.8253,-85.7611,227,"2010-12-08 00:00","AL_COOP"
"84","JOPA1","Joppa 1SW",34.2935,-86.5709,313.44092,"2019-03-08 00:00","AL_COOP"
"85","WPKA1","JORDAN DAM",32.6167,-86.25,103,"2010-12-07 00:00","AL_COOP"
"86","LEDA1","LEEDS",33.5447,-86.5272,208,"2010-12-03 00:00","AL_COOP"
"87","LVNA1","LIVINGSTON",32.5811,-88.1897,47,"2010-12-07 00:00","AL_COOP"
"88","MAFA1","MADISON 2 N",34.7269,-86.7455,233,"2010-12-08 00:00","AL_COOP"
"89","MRJA1","Marion Junction",32.4714,-87.2306,67.49235,"2011-10-01 00:00","AL_COOP"
"90","TLLA1","MARTIN DAM - AL PWR CO",32.6781,-85.9083,151,"2010-12-07 00:00","AL_COOP"
"91","MATA1","MATHEWS",32.2603,-86.0003,84,"2010-12-07 00:00","AL_COOP"
"92","MVNA1","MELVIN",31.9314,-88.4581,111,"2010-11-24 00:00","AL_COOP"
"93","MDWA1","Midway",32.0783,-85.5219,168.45085,"2011-08-01 00:00","AL_COOP"
"94","MLPA1","Millport 2E",33.57,-88.0333,88.50566,"2011-08-01 00:00","AL_COOP"
"95","MONA1","MONTGOMERY",32.26,-86.2181,72,"2010-12-01 00:00","AL_COOP"
"96","MOUA1","MOULTON 2",34.4884,-87.299,192,"2010-12-08 00:00","AL_COOP"
"97","MDVA1","Moundville",32.9947,-87.6225,59.46868,"2011-12-01 00:00","AL_COOP"
"98","MWPA1","Muscle Shoals",34.7586,-87.6411,155.489,"2012-01-01 00:00","AL_COOP"
"99","UAHA1","NATIONAL SPACE SCIENCE AND TECHNOLOGY CE",34.7242,-86.6467,203,"2010-12-07 00:00","AL_COOP"
"100","NMKA1","New Market",34.9479,-86.4729,252,"2011-06-01 00:00","AL_COOP"
"101","ABNA1","NO 2/WATER TREATMENT PLANT",32.5992,-85.4653,206,"2010-12-08 00:00","AL_COOP"
"102","HORA1","NORTH ALABAMA HORTICULTURE SUBSTATION",34.1925,-86.7972,241,"2010-12-08 00:00","AL_COOP"
"103","OMNA1","Oakman 1NNE",33.7222,-87.383,117.34391,"2017-10-01 00:00","AL_COOP"
"104","TODA1","OLIVER LOCK AND DAM",33.2097,-87.5936,38,"2010-12-07 00:00","AL_COOP"
"105","ONEA1","ONEONTA",33.9478,-86.4692,275,"2010-12-08 00:00","AL_COOP"
"106","OXRA1","OWENS CROSS ROADS 3S",34.5528,-86.4453,180,"2010-12-08 00:00","AL_COOP"
"107","PLDA1","PALMERDALE",33.7453,-86.6431,225,"2010-12-07 00:00","AL_COOP"
"108","CPHA1","PIEDMONT EXP STN",32.8236,-85.6561,225,"2010-12-08 00:00","AL_COOP"
"109","PINA1","PINE APPLE",31.8817,-86.9861,110,"2010-12-12 00:00","AL_COOP"
"110","PSNA1","Pinson",33.6906,-86.6847,186.85443,"2011-01-24 00:00","AL_COOP"
"111","PLNA1","PLANTERSVILLE",32.6131,-86.9056,70,"2010-12-08 00:00","AL_COOP"
"112","RGLA1","Ragland",33.7839,-86.0528,142.12857,"2010-12-07 00:00","AL_COOP"
"113","RAGA1","Ragland 3SSW",33.7075,-86.1844,148.7272,"2017-12-01 00:00","AL_COOP"
"114","RFMA1","Reform",33.3753,-88.02,74.324036,"2011-09-01 00:00","AL_COOP"
"115","MLSA1","RESEARCH CENTER",32.4419,-85.8889,81,"2010-11-02 00:00","AL_COOP"
"116","RBTA1","ROBERTSDALE",30.6258,-87.6567,49,"2010-12-08 00:00","AL_COOP"
"117","ROKA1","Rockford",32.8711,-86.1758,227.18571,"2011-09-01 00:00","AL_COOP"
"118","RKMA1","ROCK MILLS",33.1592,-85.2892,232,"2010-12-03 00:00","AL_COOP"
"119","RUSA1","RUSSELLVILLE NUMBER 2",34.51,-87.7319,254,"2010-12-05 00:00","AL_COOP"
"120","STBA1","Saint Bernard Abbey near Cullman",34.1736,-86.8133,229.23654,"2011-09-01 00:00","AL_COOP"
"121","CSMA1","SAND MOUNTAIN SUBSTATION",34.2877,-85.968,347,"2010-12-08 00:00","AL_COOP"
"122","SCTA1","SCOTTSBORO",34.6736,-86.0536,184,"2010-12-08 00:00","AL_COOP"
"123","SCXA1","SCOTTSBORO MUNICIPAL AIRPORT HCN-M",34.694,-85.9997,188,"2010-12-07 00:00","AL_COOP"
"124","SEAA1","SEALE",32.2878,-85.1233,129,"2010-12-08 00:00","AL_COOP"
"125","SELA1","SELMA",32.41,-87.0153,41,"2010-11-07 00:00","AL_COOP"
"126","MAJA1","SELMA 13 WNW",32.4567,-87.2422,55,"2010-12-07 00:00","AL_COOP"
"127","MTVA1","SEWAGE TR PLT",33.0981,-86.8667,123,"2010-12-08 00:00","AL_COOP"
"128","SPRA1","Springville 4E",33.76,-86.4008,205.35094,"2019-11-01 00:00","AL_COOP"
"129","OKMA1","SPROTT",32.7906,-87.1706,138,"2010-12-07 00:00","AL_COOP"
"130","ATMA1","STATE NURSERY",31.1731,-87.4389,104,"2010-11-07 00:00","AL_COOP"
"131","SULA1","SULLIGENT",33.8997,-88.1325,99,"2010-12-07 00:00","AL_COOP"
"132","TLDA1","TALLADEGA",33.4411,-86.0811,196,"2010-12-07 00:00","AL_COOP"
"133","TSSA1","TALLAPOOSA RIVER  AT Thurlow Dan",32.5333,-85.9,108.0882,"2011-01-14 00:00","AL_COOP"
"134","MGYA1","TALLAPOOSA WATER PLANT",32.4397,-86.1956,48,"2010-12-01 00:00","AL_COOP"
"135","TOMA1","THOMASVILLE",31.9167,-87.7333,129,"2010-11-07 00:00","AL_COOP"
"136","THBA1","THORSBY EXP STN",32.9206,-86.6708,215,"2010-12-03 00:00","AL_COOP"
"137","TOIA1","Troy - WTBF",31.8075,-85.9722,173.06178,"2011-09-01 00:00","AL_COOP"
"138","TKGA1","TUSKEGEE",32.4492,-85.6414,108,"2010-12-07 00:00","AL_COOP"
"139","TYLA1","TYLER 6E",32.3233,-86.7828,42,"2010-12-01 00:00","AL_COOP"
"140","UNSA1","Union Springs",32.0142,-85.7464,130.2995,"2011-09-01 00:00","AL_COOP"
"141","UNTA1","UNIONTOWN",32.4472,-87.5208,76,"2010-12-02 00:00","AL_COOP"
"142","VYHA1","VALLEY HEAD",34.5667,-85.6128,319,"2010-12-07 00:00","AL_COOP"
"143","VHXA1","VALLEY HEAD HCN-M",34.5653,-85.617,312,"2010-12-07 00:00","AL_COOP"
"144","VRNA1","VERNON",33.7392,-88.1275,89,"2010-12-07 00:00","AL_COOP"
"145","WDYA1","WADLEY NR 2",33.1272,-85.58,235,"2010-12-08 00:00","AL_COOP"
"146","JPRA1","WALKER CO. AIRPORT",33.9053,-87.315,146,"2010-12-11 00:00","AL_COOP"
"147","WLCA1","WALLACE",31.2097,-87.1789,92,"2010-12-01 00:00","AL_COOP"
"148","WLGA1","WALNUT GROVE",34.0661,-86.3069,262,"2010-12-08 00:00","AL_COOP"
"149","WALA1","WALNUT HILL 3W",32.7028,-85.8936,187,"2010-12-12 00:00","AL_COOP"
"150","WLDA1","WARRIOR LOCK AND DAM",32.7744,-87.8306,36,"2010-12-07 00:00","AL_COOP"
"151","TALA1","WASTE WATER TREATMENT PLT",33.4164,-86.135,154,"2010-12-08 00:00","AL_COOP"
"152","OPLA1","WASTE WATER TREATMENT PLT",32.6592,-85.4492,192,"2010-12-02 00:00","AL_COOP"
"153","HEFA1","WATER PLANT",33.6483,-85.6006,281,"2010-12-08 00:00","AL_COOP"
"154","SCGA1","WATER PLANT",33.2053,-86.2114,165,"2010-12-08 00:00","AL_COOP"
"155","ATHA1","WATER TREATMENT PLANT",34.7752,-86.9508,217,"2010-12-08 00:00","AL_COOP"
"156","LFYA1","WATER TR PLT",32.9069,-85.4336,220,"2010-12-07 00:00","AL_COOP"
"157","WKXA1","WEEKS BAY NERR",30.415,-87.8261,2,"2010-12-07 00:00","AL_COOP"
"158","WBLA1","WEST BLOCTON",33.1178,-87.1267,157,"2010-12-12 00:00","AL_COOP"
"159","WPTA1","WEST POINT",34.2448,-86.9586,286,"2010-12-05 00:00","AL_COOP"
"160","EWRA1","WILDLIFE REFUGE",32.0042,-85.0858,75,"2010-12-07 00:00","AL_COOP"
"161","OPNA1","WING",31.0944,-86.5486,92,"2010-12-07 00:00","AL_COOP"
"162","JCKA1","WTR PLT",31.525,-87.9278,33,"2010-11-07 00:00","AL_COOP"
"163","ALUA1","WTR TR PLT",31.3067,-86.5222,84,"2010-11-01 00:00","AL_COOP"
"164","AAMA1","AAMU/JTG SCAN",34.78333,-86.55,262.1,"2016-11-07 00:00","AL_DCP"
"165","MTCA1","Abel - Mt Cheaha",33.6,-85.65,301.71387,"2012-03-20 00:00","AL_DCP"
"166","CLBA1","Alabama River 15 AT Claiborne Dam - Tailwater",31.615,-87.5506,11,"2010-12-07 00:00","AL_DCP"
"167","TYLA1","Alabama River 3 NE R.F. Henry Lock and Dam",32.3233,-86.7828,34,"2010-12-01 00:00","AL_DCP"
"168","ALRA1","ALABAMA RIVER 6 NW Alabama River At US 31 Near Montgomery",32.4114,-86.4083,48,"2010-12-07 00:00","AL_DCP"
"169","MRFA1","Alabama River 9 AT Millers Ferry Dam",32.1,-87.3981,11,"2010-12-07 00:00","AL_DCP"
"170","CHBA1","ALABAMA RIVER  AT CHOCTAW BLUFF",31.3636,-87.765,9,"2010-12-07 00:00","AL_DCP"
"171","MGMA1","Alabama River  AT Montgomery",32.3919,-86.3178,37,"2010-12-07 00:00","AL_DCP"
"172","SELA1","Alabama River  AT Selma",32.41,-87.0153,40,"2010-11-07 00:00","AL_DCP"
"173","ABVA1","ALBERTVILLE",34.2358,-86.1856,320,"2010-12-15 00:00","AL_DCP"
"174","LCXA1","AL COURTLAND 2 WSW",34.6602,-87.3462,173,"2010-12-07 00:00","AL_DCP"
"175","CUXA1","AL CULLMAN 3 ENE",34.1954,-86.7963,243,"2010-12-07 00:00","AL_DCP"
"176","FRYA1","Aldridge Creek  AT Aldridge Creek / Farley",34.6239,-86.5411,180,"2010-12-07 00:00","AL_DCP"
"177","SHEA1","Aldridge Creek  AT Aldridge Creek / Sherwood Dr.",34.6642,-86.5542,188,"2010-12-07 00:00","AL_DCP"
"178","TONA1","Aldridge Creek  AT Aldridge Creek / Toney Dr.",34.6981,-86.5506,202,"2010-12-07 00:00","AL_DCP"
"179","EBBA1","ALERT GAGES AT PEA RVR",31.4136,-86.0625,66,"2010-12-07 00:00","AL_DCP"
"180","GRXA1","AL GREENSBORO 2 WNW",32.7169,-87.6226,84,"2010-12-07 00:00","AL_DCP"
"181","GUXA1","AL GUNTERSVILLE 2 SW",34.3337,-86.3156,187,"2010-12-07 00:00","AL_DCP"
"182","HHXA1","AL HIGHLAND HOME 2 S",31.9155,-86.3115,180,"2010-12-07 00:00","AL_DCP"
"183","AVUA1","Aliceville 10NW - Tombigbee River",33.21056,-88.28861,38.199814,"2021-02-26 00:00","AL_DCP"
"184","MSXA1","AL MUSCLE SHOALS 2 N",34.7728,-87.6399,168,"2010-12-07 00:00","AL_DCP"
"185","ALPA1","ALPINE 1N",33.3594,-86.2342,141,"2010-12-07 00:00","AL_DCP"
"186","RUXA1","AL RUSSELLVILLE 4 SSE",34.4535,-87.7104,218,"2010-12-07 00:00","AL_DCP"
"187","TLXA1","AL TALLADEGA 10 NNE",33.5721,-86.0573,160,"2010-12-07 00:00","AL_DCP"
"188","ANNA1","Anniston - AL Power Co",33.5667,-85.9,187.59866,"2012-03-20 00:00","AL_DCP"
"189","BNKA1","AT Bankhead Lock and Dam",33.4583,-87.3542,77.755005,"2011-01-14 00:00","AL_DCP"
"190","BCDA1","AT Big Creek Lake",30.7208,-88.3042,37,"2010-12-08 00:00","AL_DCP"
"191","AHNA1","ATHENS",34.7906,-86.9656,213,"2010-12-20 00:00","AL_DCP"
"192","WPKA1","AT Jordan Dan",32.6167,-86.25,103,"2010-12-07 00:00","AL_DCP"
"193","RGLA1","AT Neely Henry",33.7839,-86.0528,153,"2010-12-07 00:00","AL_DCP"
"194","ARKA1","AT Smith Dam",33.9406,-87.1078,121,"2010-12-07 00:00","AL_DCP"
"195","CHWA1","AUBURN",32.5453,-85.4806,148,"2010-12-07 00:00","AL_DCP"
"196","AUNA1","Auburn - North Auburn",32.65,-85.4667,186.37788,"2012-03-20 00:00","AL_DCP"
"197","BHFA1","BANKHEAD NATIONAL FOREST",34.3441,-87.3375,302,"2010-12-07 00:00","AL_DCP"
"198","BASA1","BASSETT CK AT US 43",31.8639,-87.7472,101,"2010-12-07 00:00","AL_DCP"
"199","BTSA1","BATESVILLE 1NE",32.0175,-85.2958,80,"2010-12-07 00:00","AL_DCP"
"200","BLBA1","Bayou La Batre",30.4056,-88.2476,2,"2016-11-20 00:00","AL_DCP"
"201","BYOA1","BAYOU LA BATRE",30.3986,-88.2569,6,"2010-12-07 00:00","AL_DCP"
"202","WFRA1","Bayou La Batre 5E - W Fowl River",30.3766,-88.1586,1,"2016-11-20 00:00","AL_DCP"
"203","BYSA1","Bayside - Dog River",30.5651,-88.088,-1,"2016-11-20 00:00","AL_DCP"
"204","UBTA1","Bear Creek 2 E Bear Creek (Tailwater)",34.2694,-87.6966,250,"2010-12-07 00:00","AL_DCP"
"205","UBRA1","Bear Creek 2 E Bear Creek (Upper)",34.2728,-87.6925,247,"2010-12-07 00:00","AL_DCP"
"206","BCRA1","Bear Creek 4 N Bear Creek Dam HW",34.3991,-87.9872,186,"2010-12-07 00:00","AL_DCP"
"207","BCTA1","Bear Creek 4 WNW Bear Creek Dam TW",34.3997,-87.9872,190,"2010-12-07 00:00","AL_DCP"
"208","BCBA1","Bear Creek  AT Bear Creek at Bishop",34.6558,-88.122,135.16559,"2015-11-22 00:00","AL_DCP"
"209","RBYA1","Bear Creek  AT Red Bay",34.4438,-88.1155,159,"2010-12-07 00:00","AL_DCP"
"210","BRYA1","BERRY",33.6156,-87.6075,116,"2010-11-01 00:00","AL_DCP"
"211","ASHA1","Big Canoe Creek  AT BIG CANOE CREEK AT HWY 231 AT ASHVILLE",33.8397,-86.2628,162,"2010-12-07 00:00","AL_DCP"
"212","DUGA1","Big Cove Creek  AT Big Cove Creek / Haden",34.7047,-86.5122,198,"2010-12-07 00:00","AL_DCP"
"213","WILA1","BIG CREEK  AT BIG CREEK",30.8558,-88.3394,56,"2010-12-07 00:00","AL_DCP"
"214","BIGA1","Big Creek  AT Big Creek (SR 87)",31.4892,-86.0533,60,"2010-12-07 00:00","AL_DCP"
"215","STNA1","BIG ESCAMBIA CREEK",31.1294,-87.3706,44,"2010-12-07 00:00","AL_DCP"
"216","FLMA1","Big Escambia Creek  AT Flomaton",31.0125,-87.2625,21,"2013-02-25 00:00","AL_DCP"
"217","BNAA1","Big Nance Creek  AT Courtland",34.67,-87.3172,167,"2010-12-07 00:00","AL_DCP"
"218","CDPA1","BIG WILLS CREEK 2 NW Big Wills Creek (Reece City)",34.0981,-86.0381,174,"2010-12-07 00:00","AL_DCP"
"219","BGWA1","Big Wills Creek  AT Fort Payne (Highway 35)",34.4381,-85.7672,241,"2010-12-07 00:00","AL_DCP"
"220","BMHA1","Birmingham - AL Power",33.5,-86.9,166.73824,"2012-03-20 00:00","AL_DCP"
"221","VALA1","Birmingham - Valley Creek",33.50556,-86.83639,171,"2022-05-18 00:00","AL_DCP"
"222","VGPA1","Birmingham - Village Creek 16th St",33.5347,-86.8269,174.48602,"2015-08-13 00:00","AL_DCP"
"223","THDA1","BLACK WARRIOR 3 NE Holt Lock and Dam",33.25,-87.45,89.88473,"2011-01-14 00:00","AL_DCP"
"224","BLDA1","Black Warrior River 18 WNW Bankhead Lock and Dam",33.4528,-87.3572,58,"2010-12-01 00:00","AL_DCP"
"225","WLDA1","Black Warrior River 5 E Selden Lock and Dam",32.7744,-87.8306,36,"2010-12-07 00:00","AL_DCP"
"226","TCLA1","Black Warrior River 5 N Holt Lock and Dam",33.2533,-87.45,38,"2010-12-07 00:00","AL_DCP"
"227","TODA1","Black Warrior River  AT Oliver Lock and Dam",33.2097,-87.5936,43,"2010-12-07 00:00","AL_DCP"
"228","MCHA1","BLACKWATER CREEK  AT Blackwater Creek (Manchester)",33.9083,-87.2569,127,"2010-12-07 00:00","AL_DCP"
"229","BRDA1","BLACKWATER RIVER 1 E BLACKWATER RIVER",31.0275,-86.71,46,"2010-12-07 00:00","AL_DCP"
"230","BLEA1","BLEECKER",32.5825,-85.1641,204,"2010-12-07 00:00","AL_DCP"
"231","BSPA1","Blount Springs",33.9333,-86.8,216.45534,"2012-03-20 00:00","AL_DCP"
"232","BLVA1","Blountsville",34.0833,-86.5833,249.06429,"2012-03-20 00:00","AL_DCP"
"233","BLSA1","Blue Springs Creek 1 SW BLUE SPRINGS CREEK NEAR BLOUNTSVILLE",34.0797,-86.6078,201,"2010-12-07 00:00","AL_DCP"
"234","BDKA1","BODKA CREEK 4.2 N BODKA CREEK NR GEIGER",32.8069,-88.3119,42,"2010-12-07 00:00","AL_DCP"
"235","BRAA1","BRAGG FARM SCAN",34.89375,-86.60236,243.2,"2016-11-07 00:00","AL_DCP"
"236","BRXA1","BREWTON HCN-M",31.1449,-87.0517,56,"2010-12-07 00:00","AL_DCP"
"237","BDAA1","BROAD ACRES SCAN",32.28393,-86.05253,82,"2016-11-07 00:00","AL_DCP"
"238","OKWA1","Broglan Branch  AT Broglan Branch / Oakwood Ave.",34.7494,-86.6253,207,"2010-12-07 00:00","AL_DCP"
"239","BLRA1","Brompton - Bald Rock",33.6,-86.4333,354.3775,"2012-03-20 00:00","AL_DCP"
"240","MRBA1","BUCKS",31.0156,-88.0208,2,"2010-12-07 00:00","AL_DCP"
"241","BCNA1","Burnt Corn Creek 1.0 NW Brewton",31.1297,-87.0872,23,"2010-12-07 00:00","AL_DCP"
"242","TUKA1","Butler 7N - Tuckabum Creek",32.18333,-88.17,38.76576,"2021-07-27 00:00","AL_DCP"
"243","HMTA1","BUTTAHATCHEE RIVER 2 S Buttahatchee Creek at Highway 78",34.1061,-87.9894,128,"2010-12-07 00:00","AL_DCP"
"244","LTCA1","CAHABA HEIGHTS",33.4397,-86.6989,154,"2010-12-07 00:00","AL_DCP"
"245","ACTA1","CAHABA RIVER 1 NW Cahaba River Near Acton",33.3633,-86.7797,143,"2010-12-07 00:00","AL_DCP"
"246","SUTA1","Cahaba River 1 W Suttle",32.5411,-87.1783,44,"2010-12-07 00:00","AL_DCP"
"247","MNJA1","Cahaba River 3 E Marion Junction",32.4439,-87.1803,33,"2010-12-07 00:00","AL_DCP"
"248","CHGA1","Cahaba River 3 S Cahaba Heights",33.4156,-86.7397,124,"2010-12-07 00:00","AL_DCP"
"249","HLEA1","CAHABA RIVER 3 W Cahaba River Near Helena",33.2844,-86.8828,130,"2010-12-07 00:00","AL_DCP"
"250","CKLA1","Cahaba River  AT Centreville",32.95,-87.1333,89,"2010-12-07 00:00","AL_DCP"
"251","TRSA1","CAHABA RIVER AT TRUSSVILLE",33.6222,-86.5994,224,"2010-12-07 00:00","AL_DCP"
"252","CVCA1","CAHABA VALLEY CREEK  AT Cahaba Valley Creek (Pelham)",33.3133,-86.8064,132,"2010-12-07 00:00","AL_DCP"
"253","CARA1","CARROLL CREEK AT ST HWY 69 NEAR NORTHPOR",33.2947,-87.5683,73,"2010-12-07 00:00","AL_DCP"
"254","CATA1","Catoma Creek 5 S U.S. 331 Highway Bridge",32.3072,-86.2994,48,"2010-12-07 00:00","AL_DCP"
"255","CCTA1","Cedar Creek 12 NNE Cedar Creek Dam TW",34.5525,-87.9855,160,"2010-12-07 00:00","AL_DCP"
"256","CCRA1","CEDAR CREEK RTU",34.5463,-87.9752,175,"2010-12-07 00:00","AL_DCP"
"257","ADMA1","Centre 8SW - Coosa River",34.08667,-87.79,202.28123,"2020-10-13 00:00","AL_DCP"
"258","FPHA1","CHATTAHOOCHEE R .36 MI DS WFG DAM NR FT",31.6214,-85.06,43,"2010-12-07 00:00","AL_DCP"
"259","COLA1","CHATTAHOOCHEE RIVER  AT ANDREWS LOCK & DAM",31.2592,-85.1103,23,"2010-12-07 00:00","AL_DCP"
"260","EUFA1","CHATTAHOOCHEE RIVER AT C.G. DOCK AT EUFA",31.9081,-85.145,69,"2010-12-07 00:00","AL_DCP"
"261","CDRA1","CHATTAHOOCHEE RIVER AT MILE 46 NEAR COLU",31.2489,-85.1067,42,"2010-12-07 00:00","AL_DCP"
"262","GAYA1","Chattooga River 3 ENE GAYLESVILLE",34.2903,-85.5092,177,"2010-12-07 00:00","AL_DCP"
"263","CIKA1","Chickasaw - Chickasaw Creek",30.7818,-88.0736,1,"2016-11-20 00:00","AL_DCP"
"264","CHKA1","CHICKASAW CREEK  AT CHICKASAW CK NR KUSHLA",30.8028,-88.1433,8,"2010-12-07 00:00","AL_DCP"
"265","DCRA1","Choctawhatchee  AT Choctawhatchee River near Daleville",31.275,-85.6781,37,"2016-01-11 00:00","AL_DCP"
"266","GNVA1","Choctawhatchee River 1 E Geneva (SR 52)",31.0411,-85.8522,22,"2010-12-07 00:00","AL_DCP"
"267","NEWA1","CHOCTAWHATCHEE RIVER 1 N NEWTON",31.3427,-85.6105,51,"2010-12-07 00:00","AL_DCP"
"268","BELA1","Choctawhatchee River 1 SSE Bellwood (CR 45)",31.1592,-85.7844,27,"2010-12-07 00:00","AL_DCP"
"269","CLXA1","CLANTON-CHILTON COUNTY AIRPORT",32.8515,-86.6115,177,"2010-12-07 00:00","AL_DCP"
"270","WCCA1","Clanton - Walnut Creek",32.8902,-86.5791,155,"2015-12-10 00:00","AL_DCP"
"271","DALA1","Claybank Creek 2 W Daleville (SR 134)",31.3367,-85.7458,51,"2010-12-07 00:00","AL_DCP"
"272","POPA1","CLEAR CREEK 5 NE Clear Creek Near Poplar Spring",34.0811,-87.4228,186,"2010-12-07 00:00","AL_DCP"
"273","CCHA1","COCHRANE 1NE",33.0811,-88.2378,40,"2010-12-07 00:00","AL_DCP"
"274","CLVA1","Collinsville - AL Power",34.2333,-85.9833,347.8213,"2012-03-20 00:00","AL_DCP"
"275","RVFA1","Conecuh River 0 AT River Falls",31.3481,-86.5294,39,"2010-12-07 00:00","AL_DCP"
"276","BRNA1","CONECUH RIVER 1 SE CONECUH RIVER AT BRANTLEY",31.5733,-86.2517,73,"2010-12-07 00:00","AL_DCP"
"277","BWTA1","Conecuh River 3.3 SSE Brewton",31.0578,-87.0542,26,"2010-11-17 00:00","AL_DCP"
"278","PTAA1","Conecuh River  AT River Falls",31.3611,-86.5197,43,"2010-12-07 00:00","AL_DCP"
"279","CCSA1","Coosa River 10 N Logan Martin Dam",33.4333,-86.3333,150,"2010-12-07 00:00","AL_DCP"
"280","GAPA1","Coosa River 1 E Gadsden",34.0139,-85.9703,155,"2010-12-07 00:00","AL_DCP"
"281","CHLA1","Coosa River 1 ENE Childersburg",33.2822,-86.3436,127,"2010-12-01 00:00","AL_DCP"
"282","CREA1","Coosa River 1 E Weiss Dam",34.1333,-85.8,177,"2010-12-07 00:00","AL_DCP"
"283","WETA1","Coosa River  AT Wetumpka",32.5606,-86.1869,74,"2010-12-07 00:00","AL_DCP"
"284","FRVA1","CROOKED CREEK  AT CROOKED CREEK",30.78,-88.3189,47,"2010-12-07 00:00","AL_DCP"
"285","CNSA1","CULLMAN-NAHRC SCAN",34.19492,-86.79897,243.5,"2016-11-07 00:00","AL_DCP"
"286","DAVA1","Dadeville",32.8175,-85.7456,214.33592,"2012-03-20 00:00","AL_DCP"
"287","CMNA1","Dallas Branch  AT Dallas Branch / Coleman St.",34.7456,-86.5742,198,"2010-12-07 00:00","AL_DCP"
"288","DOLA1","Daphne 3NNE - DOlive Creek",30.65194,-87.88944,18.525639,"2017-03-17 00:00","AL_DCP"
"289","TAWA1","Daphne 3NNE - Tiawasee Creek",30.64278,-87.89167,19.529987,"2017-03-17 00:00","AL_DCP"
"290","DILA1","Dauphin Island",30.25,-88.075,0,"2016-08-30 00:00","AL_DCP"
"291","DAUA1","DAUPHIN ISLAND",30.2511,-88.0792,1.3863902,"2010-12-05 00:00","AL_DCP"
"292","DRVA1","De Armanville - AL Power",33.6167,-85.7167,256.06207,"2012-03-20 00:00","AL_DCP"
"293","DEEA1","DEE RIVER RANCH SCAN",33.10768,-88.31003,48.8,"2016-11-08 00:00","AL_DCP"
"294","IDWA1","DEKALB WELL / IDER 3S",34.6452,-85.6755,455,"2010-12-07 00:00","AL_DCP"
"295","DMEA1","DIME",34.3339,-87.6506,251,"2010-12-07 00:00","AL_DCP"
"296","DIXA1","Dixie 5WSW - Folley Creek",31.12778,-86.79639,46.528667,"2017-04-14 00:00","AL_DCP"
"297","DXRA1","Dixon RAWS",31.16194,-86.70333,94.14758,"2020-12-24 00:00","AL_DCP"
"298","DXCA1","Dixonville SRS RAWS",31.01111,-87.05556,90.45637,"2020-12-30 00:00","AL_DCP"
"299","BERA1","Duck River 3 E Berlin",34.1719,-86.695,195,"2010-12-07 00:00","AL_DCP"
"300","TEXA1","East Fork Choctawhatchee River 4 W Texasville (SR 131)",31.75,-85.3583,121,"2010-12-07 00:00","AL_DCP"
"301","EFKA1","East Fork Choctawhatchee River 9 SW Abbeville (SR 27)",31.4958,-85.3711,79,"2010-12-07 00:00","AL_DCP"
"302","VGRA1","East Lake Roebuck - Village Creek",33.5769,-86.7188,200.70334,"2015-08-12 00:00","AL_DCP"
"303","WCHA1","EF Pinhook Creek  AT EF Pinhook Creek / Winchester Rd.",34.7928,-86.5892,213,"2010-12-07 00:00","AL_DCP"
"304","WLFA1","Elberta 4SW - Wolf Creek",30.38806,-87.65278,19.094313,"2017-03-24 00:00","AL_DCP"
"305","ELLA1","ELLIOTS CREEK",32.9972,-87.6222,64,"2010-12-07 00:00","AL_DCP"
"306","ELSA1","ELLISVILLE/ COLOMA",34.065,-85.6142,176,"2010-12-07 00:00","AL_DCP"
"307","BODA1","Elmore 5NNW - Bouldin Dam",32.5833,-86.2833,49.992016,"2012-03-20 00:00","AL_DCP"
"308","VAWA1","Emsl - Valley Creek",33.4925,-86.87194,164,"2022-06-02 00:00","AL_DCP"
"309","PURA1","Estelle 2SSE - Pursley Creek",31.94111,-87.18667,59.333492,"2017-04-14 00:00","AL_DCP"
"310","ESFA1","Estillfork - Estill Fork",34.91556,-86.16833,204.1419,"2016-08-23 00:00","AL_DCP"
"311","ADAA1","Fagan Creek  AT Fagan Creek / Adams St.",34.7225,-86.575,192,"2010-12-07 00:00","AL_DCP"
"312","FRPA1","FAIRHOPE 3NE",30.5486,-87.8758,34,"2010-12-07 00:00","AL_DCP"
"313","FKVA1","FALKVILLE",34.3739,-86.9128,177,"2010-12-07 00:00","AL_DCP"
"314","FCFA1","Falkville 1WNW - Flint Creek",34.37306,-86.93361,179.82887,"2017-04-07 00:00","AL_DCP"
"315","WTRA1","Farill - Stateline",34.203,-85.4532,183,"2015-01-30 00:00","AL_DCP"
"316","FSHA1","Fish River 2 AT Silverhill",30.5453,-87.7986,7,"2010-12-07 00:00","AL_DCP"
"317","KETA1","Fivemile Creek  AT Ketona",33.6014,-86.7556,170,"2010-12-07 00:00","AL_DCP"
"318","FLRA1","FLAT ROCK",34.7678,-85.7006,409,"2010-12-07 00:00","AL_DCP"
"319","BSBA1","Flint River  AT Brownsboro",34.7491,-86.4466,189,"2010-12-07 00:00","AL_DCP"
"320","CHSA1","Flint River  AT Chase",34.8233,-86.4811,212,"2010-12-08 00:00","AL_DCP"
"321","NTCA1","FLORENCE",34.7947,-87.6745,158,"2010-12-08 00:00","AL_DCP"
"322","CCFA1","Florence - Cypress Creek",34.8077,-87.7005,145.40631,"2015-11-22 00:00","AL_DCP"
"323","WSDA1","Florence - Wilson Dam",34.4733,-87.3738,196.6331,"2012-04-12 00:00","AL_DCP"
"324","FMRA1","FORT MORGAN 1WNW",30.235,-88.0413,0,"2010-12-07 00:00","AL_DCP"
"325","FMOA1","Fort Morgan  AL - 8734673",30.228,-88.024,2,"2016-08-30 00:00","AL_DCP"
"326","FLWA1","FOWL RIVER  AT FOWL RIVER NEAR LAURENDINE",30.50056,-88.18139,6.81557,"2010-12-07 00:00","AL_DCP"
"327","GDNA1","GADSDEN",34.0103,-85.9978,151,"2010-12-07 00:00","AL_DCP"
"328","SMCA1","GADSDEN 19 N",34.285,-85.9622,350,"2010-12-07 00:00","AL_DCP"
"329","GMBA1","Gadsden - Memorial Bridge",34.021,-85.999,166.12056,"2015-01-30 00:00","AL_DCP"
"330","GVXA1","GAINESVILLE LOCK &amp; DAM - M",32.8368,-88.1374,30,"2010-12-07 00:00","AL_DCP"
"331","BONA1","GASQUE/BONSECOUR WMA",30.2528,-87.8125,1.9598194,"2010-12-07 00:00","AL_DCP"
"332","NOXA1","GEIGER 4N",32.9183,-88.2958,42,"2010-12-07 00:00","AL_DCP"
"333","GERA1","GERALDINE",34.3783,-85.9903,324,"2010-12-07 00:00","AL_DCP"
"334","GPPA1","Goodsprings - Gorgas Pump",33.6402,-87.1878,107.098145,"2015-01-30 00:00","AL_DCP"
"335","GHAA1","Grove Hill RAWS",31.69083,-87.76056,145.23534,"2020-12-24 00:00","AL_DCP"
"336","GVOA1","GROVEOAK",34.4264,-86.0222,341,"2010-12-07 00:00","AL_DCP"
"337","EXXA1","Gulf Of Mexico  AT Dauphin Island 5s",30.1883,-88.1217,-11,"2011-09-14 00:00","AL_DCP"
"338","GSHA1","Gulf Shores - Tide Gauge",30.27944,-87.68667,-3,"2021-12-28 00:00","AL_DCP"
"339","GUNA1","GUNTERSVILLE",34.3344,-86.3297,191,"2010-11-06 00:00","AL_DCP"
"340","GVHA1","Guntersville Dam Headwater/Pool Elevation",34.4217,-86.3927,179.48242,"2022-10-27 00:00","AL_DCP"
"341","HAKA1","Hakneyville",33.0667,-85.9167,206.49908,"2012-03-20 00:00","AL_DCP"
"342","HLYA1","Haleyville - AL Power",34.2333,-87.6333,285.68103,"2012-03-20 00:00","AL_DCP"
"343","SMSA1","HAMILTON CREEK  AT HAMILTON CREEK",30.7258,-88.2764,48,"2010-12-07 00:00","AL_DCP"
"344","HRVA1","HARVEST 2 S",34.8189,-86.7528,263,"2010-12-08 00:00","AL_DCP"
"345","HAPA1","Heflin - AL Power",33.6445,-85.5882,285.8169,"2015-01-30 00:00","AL_DCP"
"346","SHLA1","HELFIN",33.6472,-85.6344,307,"2010-12-07 00:00","AL_DCP"
"347","HENA1","HENAGAR",34.8,-85.75,449,"2010-12-07 00:00","AL_DCP"
"348","HSTA1","Hester Creek 2 W Plevna / Buddy Williamson Road",34.9608,-86.4636,235,"2010-12-07 00:00","AL_DCP"
"349","HIHA1","HIGHLAND HOME 6SE",31.8814,-86.2522,132,"2010-11-01 00:00","AL_DCP"
"350","HGHA1","HIGHTOWER",33.5172,-85.3781,331,"2010-12-02 00:00","AL_DCP"
"351","HILA1","HILLABEE CREEK 3 E Hillabee Creek (Hackneyville)",33.0667,-85.8792,185,"2010-12-07 00:00","AL_DCP"
"352","HGSA1","Hodges",34.3933,-87.8864,255.46046,"2010-12-07 00:00","AL_DCP"
"353","HDGA1","HODGES SCAN",34.45,-86.15,222.5,"2016-11-07 00:00","AL_DCP"
"354","COGA1","Hokes Bluff - Colvin Gap",33.95,-85.8667,247.97757,"2012-03-20 00:00","AL_DCP"
"355","HOKA1","Hokes Bluff - Coosa River",34.04,-85.86667,161.73091,"2020-10-13 00:00","AL_DCP"
"356","HLNA1","Hollins",33.1167,-86.15,250.4243,"2012-03-20 00:00","AL_DCP"
"357","TCPA1","Holt Lock and Dam",33.253,-87.4491,56.791702,"2014-02-18 00:00","AL_DCP"
"358","HVRA1","Hoover",33.394,-86.7979,194.01456,"2012-03-20 00:00","AL_DCP"
"359","HOVA1","HOOVER",33.3692,-86.7842,139,"2010-12-07 00:00","AL_DCP"
"360","FCOA1","Huntsville 12NE - Flint Creek",34.88056,-86.48056,209.29625,"2019-09-19 00:00","AL_DCP"
"361","SBHA1","Huntsville Spring Branch  AT Spring Branch / Johnson Rd.",34.69,-86.5964,174,"2010-12-07 00:00","AL_DCP"
"362","WTBA1","Huntsville - Whitesburg",34.5714,-86.5581,168.32848,"2015-10-28 00:00","AL_DCP"
"363","MADA1","Indian Creek  AT Madison",34.6972,-86.7,184,"2010-12-07 00:00","AL_DCP"
"364","CISA1","Indian Trail - Cabaha Valley",33.34472,-86.75917,144,"2020-01-30 00:00","AL_DCP"
"365","ISBA1","ISBELL FARMS SCAN",34.81982,-87.98685,183.8,"2016-11-07 00:00","AL_DCP"
"366","JACA1","JACKSON SHOALS",33.5483,-86.0969,150,"2010-12-07 00:00","AL_DCP"
"367","JONA1","JONES",32.5828,-86.9036,62,"2010-12-07 00:00","AL_DCP"
"368","KOPA1","KOPTIS FARMS SCAN",30.5238,-87.69797,41.1,"2016-11-07 00:00","AL_DCP"
"369","LKTA1","LAKE TUSCALOOSA",33.2672,-87.5061,91,"2010-12-07 00:00","AL_DCP"
"370","MHWA1","LAWRENCE WELL / MOUNT HOPE",34.455,-87.4822,201,"2010-12-07 00:00","AL_DCP"
"371","CLTA1","Lay Dam",32.96361,-86.51861,104.60207,"2011-01-14 00:00","AL_DCP"
"372","LEEA1","LEESBURG 1E",34.1767,-85.7542,166,"2010-12-07 00:00","AL_DCP"
"373","ATNA1","Limestone Creek 9 E Capshaw / Athens",34.7517,-86.8233,192,"2010-12-07 00:00","AL_DCP"
"374","LIMA1","LIM ROCK",34.6792,-86.1889,187,"2010-12-07 00:00","AL_DCP"
"375","LBRA1","LITTLE BEAR CREEK  AT Little Bear Creek Dam HW",34.4519,-87.9769,188,"2010-12-07 00:00","AL_DCP"
"376","RLBA1","Little Bear Creek  AT Little Bear Creek Dam TW",34.4558,-87.9819,183,"2010-12-07 00:00","AL_DCP"
"377","LCRA1","LITTLE CAHABA RIVER BELOW LEEDS",33.5344,-86.5625,192,"2010-12-07 00:00","AL_DCP"
"378","JPKA1","LITTLE CAHABA RIVER NR JEFFERSON PARK",33.4997,-86.6114,184,"2010-12-07 00:00","AL_DCP"
"379","LCHA1","Little Choctawhatchee River  AT Little Choctawhatchee River near",31.2475,-85.482,68,"2012-07-18 00:00","AL_DCP"
"380","OCBA1","Little Claybank Creek 2 W Ozark (US 231)",31.4583,-85.6677,79,"2011-01-19 00:00","AL_DCP"
"381","LDBA1","LITTLE DOUBLE BRIDGE CREEK  AT LITTLE DOUBLE BRIDGES CK",31.2722,-85.9583,62,"2010-12-07 00:00","AL_DCP"
"382","SLLA1","Little Double Bridges Creek 1 E Sellersville (CR 40)",31.1297,-85.9842,40,"2010-12-07 00:00","AL_DCP"
"383","BLPA1","Little River 4 NE BLUE POND",34.2889,-85.6806,216,"2010-12-07 00:00","AL_DCP"
"384","LVSA1","LIVINGSTON-UWA SCAN",32.608,-88.19743,43.9,"2016-11-07 00:00","AL_DCP"
"385","CLEA1","Locust Fork 3 N Cleveland",34.0244,-86.5742,195,"2010-12-07 00:00","AL_DCP"
"386","SAYA1","Locust Fork  AT Sayre",33.7097,-86.9833,83,"2010-12-07 00:00","AL_DCP"
"387","LOCA1","LOCUST FORK AT WARRIOR",33.8083,-86.8011,101,"2010-12-07 00:00","AL_DCP"
"388","PARA1","LOST CREEK 3 NW Lost Creek Above Parrish",33.7417,-87.3269,84,"2010-12-07 00:00","AL_DCP"
"389","MLLA1","LUXAPALLILA CREEK AT MILLPORT",33.575,-88.0833,80,"2010-12-07 00:00","AL_DCP"
"390","MAGA1","MAGNOLIA RIVER  AT MAGNOLIA RIVER",30.4064,-87.7369,18,"2010-12-07 00:00","AL_DCP"
"391","FSMA1","Marlow - Fish River",30.47444,-87.8025,11.898287,"2019-11-29 00:00","AL_DCP"
"392","PATA1","McDonald Creek  AT McDonald Creek / Patton Rd.",34.6925,-86.6275,181,"2010-12-07 00:00","AL_DCP"
"393","MBPA1","Middle Bay Port  AL - 8736163",30.527,-88.086,3.4,"2016-08-30 00:00","AL_DCP"
"394","VRBA1","Mitchell Dam",32.80556,-86.44556,93.12297,"2011-01-14 00:00","AL_DCP"
"395","MBTA1","MOBILE",30.5939,-88.0339,0,"2010-12-14 00:00","AL_DCP"
"396","MCGA1","Mobile Coast Guard Sector - 8736897",30.649,-88.058,2,"2016-08-30 00:00","AL_DCP"
"397","BCKA1","Mobile River 1 AT Barry Steam Plant",31.0094,-88.0153,5,"2010-12-07 00:00","AL_DCP"
"398","OBLA1","Mobile State Docks  AL - 8737048",30.705,-88.04,3,"2016-08-30 00:00","AL_DCP"
"399","EFRA1","Mon Louis - E Fowl River",30.4436,-88.1139,2,"2016-11-20 00:00","AL_DCP"
"400","MRVA1","MONROEVILLE",31.4631,-87.35,131,"2010-12-07 00:00","AL_DCP"
"401","CLPA1","Monroeville - Alabama River",31.615,-87.55056,12.421233,"2016-06-17 00:00","AL_DCP"
"402","MWLA1","MONTGOMERY-3 WELL",32.3464,-86.3619,61,"2010-12-07 00:00","AL_DCP"
"403","BFMA1","Moore - Brier Fork",34.85556,-86.5175,212.17299,"2020-02-20 00:00","AL_DCP"
"404","CSEA1","Moores Mill - Chase",34.7938,-86.5189,226.67143,"2014-05-20 00:00","AL_DCP"
"405","MORA1","MORRIS",33.7431,-86.8125,123,"2010-12-07 00:00","AL_DCP"
"406","MRSA1","MORRIS FARMS SCAN",32.41222,-85.91028,67.1,"2016-11-07 00:00","AL_DCP"
"407","MLTA1","MOULTON",34.4,-87.3167,313,"2010-12-07 00:00","AL_DCP"
"408","MTBA1","MOUNTAIN BROOK",33.4817,-86.7128,144,"2010-12-07 00:00","AL_DCP"
"409","LGLA1","MT. LONGLEAF RAWS",33.7186,-85.7619,310,"2010-12-07 00:00","AL_DCP"
"410","AKLA1","Mulberry Fork 3 SE Mulberry Fork Near Arkadelphi",33.8667,-86.9222,143,"2010-12-07 00:00","AL_DCP"
"411","CRDA1","Mulberry Fork  AT Cordova",33.7575,-87.1703,78,"2010-12-07 00:00","AL_DCP"
"412","MLBA1","MULBERRY FORK NEAR GARDEN CITY",33.995,-86.7489,141,"2010-12-07 00:00","AL_DCP"
"413","BWMA1","Murder Creek 3 SSE Brewton",31.1008,-87.0689,21,"2010-12-07 00:00","AL_DCP"
"414","EVMA1","MURDER CREEK  AT MURDER CK EVERGREEN",31.4183,-86.9867,57,"2010-12-07 00:00","AL_DCP"
"415","MUSA1","MUSCLE SHOALS 3 NE",34.7886,-87.5394,168,"2010-12-08 00:00","AL_DCP"
"416","UAHA1","NATIONAL SPACE SCIENCE AND TECHNOLOGY CE",34.7242,-86.6467,203,"2010-12-07 00:00","AL_DCP"
"417","NBKA1","NEW BROCKTON ALERT",31.3772,-85.9136,112,"2010-12-07 00:00","AL_DCP"
"418","NELA1","NEWELL 2E",33.4372,-85.3992,268,"2010-12-07 00:00","AL_DCP"
"419","NPXA1","Northport",33.2125,-87.5913,45.525467,"2011-12-01 00:00","AL_DCP"
"420","SAMA1","North River 4 N Samantha",33.4792,-87.5972,83,"2010-12-07 00:00","AL_DCP"
"421","OKGA1","OAK GROVE 2ESE",33.4472,-87.1222,103,"2010-12-07 00:00","AL_DCP"
"422","SCOA1","Odena - Shirtee Creek",33.2116,-86.2733,148.8607,"2015-12-17 00:00","AL_DCP"
"423","OHCA1","Ohatchee Creek",33.78028,-85.99833,147.58041,"2020-07-10 00:00","AL_DCP"
"424","OPYA1","Opp - Yellow River",31.2736,-86.3489,73.555115,"2015-02-11 00:00","AL_DCP"
"425","PPSA1","ORANGE BEACH",30.2786,-87.555,0,"2010-12-07 00:00","AL_DCP"
"426","LANA1","OSELIGEE CREEK NR LANETT 2N",32.9014,-85.1964,188,"2010-12-07 00:00","AL_DCP"
"427","CHCA1","OXFORD",33.6019,-85.7853,184,"2010-12-07 00:00","AL_DCP"
"428","WDVA1","Paint Rock River  AT Woodville",34.6167,-86.3,180,"2010-12-07 00:00","AL_DCP"
"429","PTSA1","PATSALIGA CREEK",31.5961,-86.4056,80,"2010-12-07 00:00","AL_DCP"
"430","ARTA1","PEA RIVER 3.5 W ARITON",31.5947,-85.7831,79,"2010-12-07 00:00","AL_DCP"
"431","SSNA1","Pea River 3 W Samson (CR 52)",31.1125,-86.0994,32,"2010-12-07 00:00","AL_DCP"
"432","ELBA1","Pea River  AT Elba (US 84)",31.4133,-86.063,51,"2010-12-03 00:00","AL_DCP"
"433","FOLA1","Pea River  AT Folsom Bridge (SR 167)",31.4392,-85.9686,65,"2010-12-07 00:00","AL_DCP"
"434","SHIA1","PEA RIVER AT HWY 130 NR.SHLOH",31.7833,-85.6667,99,"2010-12-07 00:00","AL_DCP"
"435","STRA1","PEA RIVER AT HWY 239 NR.STAR HILL",31.9456,-85.6167,122,"2010-12-07 00:00","AL_DCP"
"436","GURA1","PEEVEY CREEK NEAR GURLEY",34.6894,-86.4561,191,"2010-12-07 00:00","AL_DCP"
"437","PCYA1","Pell City - AL Power",33.5667,-86.3,200.74411,"2012-03-20 00:00","AL_DCP"
"438","PRDA1","PERDIDO RIV FARMS SCAN",31.10923,-87.55277,91.1,"2016-11-07 00:00","AL_DCP"
"439","SNOA1","PINE BARREN CREEK  AT PINE BARREN CREEK",31.9961,-87.0683,54,"2010-12-07 00:00","AL_DCP"
"440","CNTA1","Pinhook Creek  AT Pinhook Creek / Clinton Ave.",34.7275,-86.5933,183,"2010-12-07 00:00","AL_DCP"
"441","MASA1","Pinhook Creek  AT Pinhook Creek / Mastin Lake Rd.",34.7714,-86.5922,203,"2010-12-07 00:00","AL_DCP"
"442","PTOA1","Pinto Island  AL - 8737005",30.671,-88.031,4.3,"2016-08-30 00:00","AL_DCP"
"443","MIDA1","POINT CLEAR",30.4733,-88.0019,0,"2010-12-07 00:00","AL_DCP"
"444","EFLA1","Point Clear 5WSW - E Range",30.4285,-88.0097,-2,"2021-06-15 00:00","AL_DCP"
"445","PCVA1","PRICEVILLE",34.5132,-86.8953,207,"2010-12-08 00:00","AL_DCP"
"446","CCPA1","Red Bay - Cedar Creek",34.3309,-87.5908,286.43246,"2012-01-24 00:00","AL_DCP"
"447","CRUA1","Reese City - Crudup",34.1,-86.0333,244.43251,"2012-03-20 00:00","AL_DCP"
"448","REPA1","REPUBLIC 1SE",33.5969,-86.8681,132,"2010-12-07 00:00","AL_DCP"
"449","RVRA1","RIVER ROAD FARMS SCAN",31.01912,-85.03693,32.6,"2016-11-07 00:00","AL_DCP"
"450","RONA1","Roanoke",33.15,-85.35,270.24814,"2012-03-20 00:00","AL_DCP"
"451","ROCA1","ROCKFORD",32.9167,-86.2703,130,"2010-12-07 00:00","AL_DCP"
"452","RKRA1","Rock Run - AL Power",33.8833,-85.5,360.4111,"2012-03-20 00:00","AL_DCP"
"453","RUFA1","RUTHERFORD 4NNW",32.2347,-85.345,109,"2010-12-07 00:00","AL_DCP"
"454","VARA1","Saginaw - Varnons",33.1833,-86.7667,170.67259,"2012-03-20 00:00","AL_DCP"
"455","TURA1","SAMANTHA 7SE",33.4133,-87.5106,120,"2010-12-07 00:00","AL_DCP"
"456","BCSA1","Samantha - Binion Creek",33.4247,-87.6425,75.84825,"2015-08-26 00:00","AL_DCP"
"457","SARA1","Saraland - Bayou Sara",30.8249,-88.0696,2,"2011-03-17 00:00","AL_DCP"
"458","SATA1","SATILPA CREEK  AT SATILPA CREEK",31.7442,-88.0225,24,"2010-12-07 00:00","AL_DCP"
"459","SCBA1","SCOTTSBORO",34.6486,-85.9861,181,"2010-12-07 00:00","AL_DCP"
"460","SCXA1","SCOTTSBORO MUNICIPAL AIRPORT HCN-M",34.694,-85.9997,188,"2010-12-07 00:00","AL_DCP"
"461","MAJA1","SELMA 13 WNW",32.4567,-87.2422,55,"2010-12-07 00:00","AL_DCP"
"462","SLXA1","SELMA-CRAIG FIELD",32.3348,-86.9786,45,"2010-12-07 00:00","AL_DCP"
"463","SMAA1","SELMA SCAN",32.40392,-86.89137,42.7,"2016-11-07 00:00","AL_DCP"
"464","UPBA1","SEPULGA RIVER  AT SEPULGA RIVER",31.4536,-86.7869,58,"2010-12-07 00:00","AL_DCP"
"465","BCMA1","Seven Hills - Big Creek",30.63917,-88.39306,19.080673,"2020-12-30 00:00","AL_DCP"
"466","GWDA1","SHADES CREEK 1.4 SW Shades Creek Near Greenwood",33.3261,-86.9497,153,"2010-12-07 00:00","AL_DCP"
"467","GRAA1","SIPSEY FORK 5 W GRAYSON",34.2853,-87.3989,191,"2010-12-07 00:00","AL_DCP"
"468","ELRA1","Sipsey River  AT ELROD",33.2569,-87.7972,94,"2010-12-07 00:00","AL_DCP"
"469","LOAA1","SOUGAHATCHEE CREEK AT CO. RD. 188",32.6267,-85.5881,176,"2010-12-07 00:00","AL_DCP"
"470","SOSA1","Southside 1N - Coosa River",33.94306,-86.02611,154.16397,"2020-08-01 00:00","AL_DCP"
"471","OKMA1","SPROTT",32.7906,-87.1706,138,"2010-12-07 00:00","AL_DCP"
"472","SSRA1","S. Sauty Creek  AT S. Sauty Creek near Rainsville",34.4986,-85.9297,354.17603,"2015-11-22 00:00","AL_DCP"
"473","STAA1","STANLEY FARM SCAN",34.43333,-86.68333,193.5,"2016-11-07 00:00","AL_DCP"
"474","STEA1","Steele",33.9333,-86.2,175.04271,"2012-03-20 00:00","AL_DCP"
"475","LCCA1","Stevenson - Little Coon Creek",34.87417,-85.91083,185.49281,"2017-03-24 00:00","AL_DCP"
"476","STXA1","Styx River 5 NE Elsanor",30.6056,-87.5472,5,"2010-12-07 00:00","AL_DCP"
"477","SXLA1","Styx River 8 AT Styx River Near Loxley  At Smiths Siding",30.6369,-87.6072,9,"2011-03-29 00:00","AL_DCP"
"478","SRSA1","STYX RIVER  AT STYX RIVER AT SEMINOLE",30.518,-87.4627,16.84887,"2012-10-03 00:00","AL_DCP"
"479","LVNA1","Sucarnoochee River at AT Livingston",32.5811,-88.1897,44,"2010-12-07 00:00","AL_DCP"
"480","SUDA1","SUDDUTH FARMS SCAN",34.17973,-87.45618,235.3,"2016-11-07 00:00","AL_DCP"
"481","ASCA1","SWAN CREEK",34.7638,-86.9463,194,"2010-12-07 00:00","AL_DCP"
"482","TLDA1","TALLADEGA",33.4411,-86.0811,196,"2010-12-07 00:00","AL_DCP"
"483","TAPA1","Talladega - AL Power",33.4368,-86.1003,181.96631,"2015-01-30 00:00","AL_DCP"
"484","HFLA1","Tallapoosa River 4 SE Tallapoosa River Near Heflin",33.6228,-85.5133,265,"2010-12-07 00:00","AL_DCP"
"485","MGYA1","Tallapoosa River 7 NE The Tallapoosa Water Plant",32.4397,-86.1956,47,"2010-12-01 00:00","AL_DCP"
"486","MHDA1","TALLAPOOSA RIVER  AT Harris Dam",33.25,-85.6167,234,"2010-12-07 00:00","AL_DCP"
"487","HBPA1","Tallapoosa River  AT Horseshoe Bend",32.9772,-85.7397,185,"2010-12-07 00:00","AL_DCP"
"488","TLLA1","Tallapoosa River  AT Martin Dam",32.6781,-85.9083,151,"2010-12-07 00:00","AL_DCP"
"489","MILA1","Tallapoosa River  AT Milstead",32.4494,-85.8981,52,"2010-12-07 00:00","AL_DCP"
"490","WDLA1","Tallapoosa River  AT Wadley",33.1175,-85.55972,189,"2010-12-07 00:00","AL_DCP"
"491","CRRA1","Tallapoosa River  AT Yates Dam",32.5667,-85.9,134.03659,"2011-01-14 00:00","AL_DCP"
"492","SCRA1","Tennessee River 3 SE Scottsboro",34.6436,-85.9803,183,"2010-12-07 00:00","AL_DCP"
"493","DECA1","Tennessee River  AT Decatur",34.6131,-86.9739,170,"2010-12-07 00:00","AL_DCP"
"494","FLOA1","Tennessee River  AT Florence",34.7869,-87.67,128,"2010-12-07 00:00","AL_DCP"
"495","GVDA1","Tennessee River  AT Guntersville Dam",34.4211,-86.3933,185,"2010-12-07 00:00","AL_DCP"
"496","WHLA1","Tennessee River  AT Wheeler Dam",34.7958,-87.3836,172,"2010-12-07 00:00","AL_DCP"
"497","WHIA1","Tennessee River  AT Whitesburg",34.5717,-86.5581,171,"2010-12-07 00:00","AL_DCP"
"498","WLSA1","Tennessee River  AT Wilson Dam / Florence",34.8044,-87.6272,148,"2010-12-07 00:00","AL_DCP"
"499","TOXA1","THOMASVILLE HCN-M",31.8814,-87.7367,107,"2010-12-07 00:00","AL_DCP"
"500","GNSA1","Tombigbee River 2 N Gainesville Lock and Dam",32.8347,-88.1342,24,"2010-12-07 00:00","AL_DCP"
"501","CLDA1","Tombigbee River 3 W Coffeeville Dam",31.7556,-88.1283,10,"2010-12-07 00:00","AL_DCP"
"502","DLDA1","Tombigbee River 3 W Demopolis Lock and Dam",32.5192,-87.8794,21,"2010-12-01 00:00","AL_DCP"
"503","NANA1","TOMBIGBEE RIVER 4 W NANAFALIA",32.13,-88.0411,27,"2010-12-07 00:00","AL_DCP"
"504","AVLA1","Tombigbee River  AT Bevill Lock and Dam",33.21,-88.2878,40,"2010-12-01 00:00","AL_DCP"
"505","LRYA1","Tombigbee River  AT Leroy",31.4858,-87.9089,1,"2010-12-07 00:00","AL_DCP"
"506","TNCA1","TOWN CREEK",34.6667,-87.4,180,"2010-12-07 00:00","AL_DCP"
"507","BNSA1","TRIB TO BIG NANCE (SEWAGE OUTFALL)",34.6638,-87.3216,178,"2010-12-07 00:00","AL_DCP"
"508","TRXA1","TROY",31.7901,-86.0004,147,"2010-12-07 00:00","AL_DCP"
"509","TRYA1","TROY ST. UNIV /ALERT RAINGAGE",31.7833,-85.95,153,"2010-12-07 00:00","AL_DCP"
"510","VGTA1","Trussville - Cahaba River",33.6655,-86.5922,242.12567,"2015-08-12 00:00","AL_DCP"
"511","TKYA1","TURKEY CREEK NR PINSON",33.7111,-86.6961,173,"2010-12-07 00:00","AL_DCP"
"512","TWLA1","TUSCALOOSA",33.5344,-87.5461,161,"2010-12-07 00:00","AL_DCP"
"513","CMCA1","TUSCALOOSA",33.1739,-87.5656,49,"2010-12-07 00:00","AL_DCP"
"514","TKGA1","TUSKEGEE",32.4492,-85.6414,108,"2010-12-07 00:00","AL_DCP"
"515","TKSA1","TUSKEGEE SCAN",32.43455,-85.74802,121.9,"2016-11-07 00:00","AL_DCP"
"516","FTMA1","Uchee Creek 2 S Uchee Creek Near Fort Mitchell",32.3167,-85.015,76,"2010-12-07 00:00","AL_DCP"
"517","UPHA1","UPHAPEE CREEK 4 N Uphapee Creek Near Tuskegee",32.4767,-85.695,82,"2010-12-07 00:00","AL_DCP"
"518","BESA1","VALLEY CREEK 2 W Valley Creek Near Bessemer",33.4192,-86.9828,146,"2010-12-07 00:00","AL_DCP"
"519","VHXA1","VALLEY HEAD HCN-M",34.5653,-85.617,312,"2010-12-07 00:00","AL_DCP"
"520","YCVA1","Vernon - Yellow Creek",33.758,-88.1197,123.094215,"2015-08-19 00:00","AL_DCP"
"521","VDCA1","VILLAGE CREEK 1 S Village Creek near Docena",33.5481,-86.9258,163,"2010-12-07 00:00","AL_DCP"
"522","PRTA1","VILLAGE CREEK 1 WSW Village Creek Near Pratt City",33.533,-86.8997,164.24937,"2015-08-12 00:00","AL_DCP"
"523","VGNA1","VILLAGE CREEK AT 24TH STREET AT BIRMINGH",33.5425,-86.8175,174,"2010-12-07 00:00","AL_DCP"
"524","ENSA1","Village Creek  AT At Avenue W",33.5175,-86.8792,157,"2010-12-07 00:00","AL_DCP"
"525","VINA1","VINCENT",33.4475,-86.3869,129,"2010-12-07 00:00","AL_DCP"
"526","WALA1","WALNUT HILL 3W",32.7028,-85.8936,187,"2010-12-12 00:00","AL_DCP"
"527","TRFA1","Warrior - Trafford",33.8333,-86.7333,167.72148,"2012-03-20 00:00","AL_DCP"
"528","HEFA1","WATER PLANT",33.6483,-85.6006,281,"2010-12-08 00:00","AL_DCP"
"529","WEDA1","WEDOWEE SCAN",33.33,-85.52,284.7,"2016-11-07 00:00","AL_DCP"
"530","WBYA1","Weeks Bay  AL - 8732828",30.417,-87.825,1,"2016-08-30 00:00","AL_DCP"
"531","WKQA1","WEEKS BAY  AT WEEKS BAY WATER",30.4161,-87.8228,8,"2010-12-07 00:00","AL_DCP"
"532","WKXA1","WEEKS BAY NERR",30.415,-87.8261,2,"2010-12-07 00:00","AL_DCP"
"533","CWBA1","West Blocton 4SE - Cahaba River",33.0963,-87.0552,75,"2023-01-04 00:00","AL_DCP"
"534","SKPA1","West Fork Choctawhatchee River 3 ENE Skipperville (SR 105)",31.575,-85.5,79,"2010-12-07 00:00","AL_DCP"
"535","YLWA1","Westover 6N - Yellowleaf Creek",33.32056,-87.575,119.171364,"2020-07-10 00:00","AL_DCP"
"536","WTKA1","Wetumpka 2NNE - Coosa River",32.55028,-86.19556,44.709747,"2019-02-01 00:00","AL_DCP"
"537","DSPA1","W FK LITTLE RVR @ DESOTO ST PK",34.4917,-85.6167,453,"2010-12-07 00:00","AL_DCP"
"538","BLUA1","WF Pinhook Creek  AT WF Pinhook Ck / Blue Springs Rd.",34.7883,-86.5986,213,"2010-12-07 00:00","AL_DCP"
"539","CWCA1","Whites Chapel - Cahaba River",33.6036,-86.5491,188.85167,"2015-08-12 00:00","AL_DCP"
"540","LOWA1","White Water Creek  AT Lowry Mill (CR 215)",31.5333,-85.9833,75,"2010-12-07 00:00","AL_DCP"
"541","WDCA1","WIDOWS CREEK STEAM PLANT",34.8861,-85.755,190,"2010-12-07 00:00","AL_DCP"
"542","EWRA1","WILDLIFE REFUGE",32.0042,-85.0858,75,"2010-12-07 00:00","AL_DCP"
"543","AGRA1","Wilmer - Escatawpa River",30.86222,-88.41778,29.05605,"2020-12-04 00:00","AL_DCP"
"544","GASA1","WILSONVILLE",33.2411,-86.4583,146,"2010-12-07 00:00","AL_DCP"
"545","WLVA1","Wilsonville - AL Power",33.2333,-86.4833,131.1676,"2012-03-20 00:00","AL_DCP"
"546","OPNA1","WING",31.0944,-86.5486,92,"2010-12-07 00:00","AL_DCP"
"547","WRTA1","WRIGHT",34.9558,-87.9536,180,"2010-12-07 00:00","AL_DCP"
"548","WTAA1","WTARS SCAN",34.9,-86.83333,190.5,"2016-11-07 00:00","AL_DCP"
"549","YELA1","YELLOW RIVER 9 NW FLORALA",31.0956,-86.4369,52,"2010-12-07 00:00","AL_DCP"
"550","ADK","ADAK AP",51.88334,-176.64999,5.1816,"","AK_COOP"
"551","KNMA2","AK KENAI 29 ENE",60.7257,-150.4508,85.95602,"2010-12-07 00:00","AK_COOP"
"552","PWHA2","AK PORT ALSWORTH 1 SW",60.1951,-154.3196,100.34883,"2010-12-07 00:00","AK_COOP"
"553","RDMA2","AK RED DOG MINE 3 SSW",68.0276,-162.9213,287.09567,"2010-12-07 00:00","AK_COOP"
"554","SNTA2","AK SAND POINT 1 ENE",55.3473,-160.466,73.74872,"2010-12-07 00:00","AK_COOP"
"555","ACLA2","Alpine Creek Lounge",63.0428,-147.2478,918.4185,"2011-10-20 00:00","AK_COOP"
"556","ABRA2","Amber Lake North",62.1925,-150.5033,136.8929,"2011-10-23 00:00","AK_COOP"
"557","AFC","ANCHORAGE FORECAST OFFICE",61.1561,-149.9847,39.9288,"2013-02-15 00:00","AK_COOP"
"558","FRWA2","Anchorage - Fort Richardson",61.2272,-149.6504,156.38622,"2012-09-01 00:00","AK_COOP"
"559","AHSA2","Anchorage Hillside #2",61.1083,-149.7861,203.22775,"2011-10-12 00:00","AK_COOP"
"560","LHD","ANCHORAGE LAKE HOOD SEA PLANE BASE",61.1786,-149.96509,24.9936,"","AK_COOP"
"561","AMHA2","Anchorage Middle Hillside",61.1043,-149.7688,243.94386,"2010-12-16 00:00","AK_COOP"
"562","RABA2","Anchorage - Rabbit Creek #2",61.0882,-149.7561,278.26297,"2011-10-02 00:00","AK_COOP"
"563","SVCA2","Anchorage Service High School",61.1385,-149.906,18.411194,"2010-12-16 00:00","AK_COOP"
"564","AUDA2","Anchorage - Upper Dearmoun",61.1025,-149.7169,406.76483,"2011-10-25 00:00","AK_COOP"
"565","ANXA2","ANNEX CREEK",58.3193,-134.0988,11.830268,"2010-12-16 00:00","AK_COOP"
"566","AUKA2","AUKE BAY",58.3833,-134.6333,21,"2010-12-16 00:00","AK_COOP"
"567","AURA2","AURORA",64.8614,-147.7589,135.10773,"2010-12-17 00:00","AK_COOP"
"568","BRW","BARROW AIRPORT",71.28703,-156.73938,8.2296,"2022-10-25 00:00","AK_COOP"
"569","BROA2","BARROW CRN",71.3213,-156.611,6.096074,"2010-12-07 00:00","AK_COOP"
"570","BET","BETHEL AIRPORT",60.78497,-161.82932,32.6136,"","AK_COOP"
"571","BTT","BETTLES AIRPORT",66.91764,-151.51892,196.596,"2020-02-02 00:00","AK_COOP"
"572","BIG","BIG DELTA AIRPORT",63.99312,-145.72134,388.0104,"","AK_COOP"
"573","BLKA2","BLASHKE ISLANDS",56.1172,-132.9017,8.8153305,"2010-12-16 00:00","AK_COOP"
"574","BUEA2","Butte 1W",61.5379,-149.0561,26.74885,"2011-10-01 00:00","AK_COOP"
"575","BTEA2","Butte near Palmer",61.5333,-148.9947,21.80757,"2011-10-24 00:00","AK_COOP"
"576","CSSA2","CAMPBELL CREEK SCIENCE CENTER",61.1638,-149.7777,80.69857,"2010-12-16 00:00","AK_COOP"
"577","CACA2","Cannery Creek near Whittier",61.0183,-147.5147,26.11478,"2011-10-01 00:00","AK_COOP"
"578","CWLA2","CANTWELL 4E",63.3717,-148.8433,691.0721,"2010-12-16 00:00","AK_COOP"
"579","CDSA2","Chandlar Shelf Pot near Wiseman",68.0781,-149.5786,991.5201,"2011-10-01 00:00","AK_COOP"
"580","CLKA2","Chelatna Lake",62.4338,-151.409,422,"2011-10-20 00:00","AK_COOP"
"581","CHNA2","Chena Ridge near Fairbanks",64.8331,-147.9403,241.12196,"2011-10-24 00:00","AK_COOP"
"582","CQNA2","Chicken 1NNE",64.0917,-141.9211,538.3177,"2010-12-16 00:00","AK_COOP"
"583","EGHA2","Chitina Airport",61.5828,-144.4272,182,"2010-12-16 00:00","AK_COOP"
"584","CHSA2","CIRCLE HOT SPRINGS",65.4861,-144.6364,260.40323,"2010-12-16 00:00","AK_COOP"
"585","CSKA2","Clear Sky near Anderson",65.2452,-149.1828,248.90082,"2010-12-16 00:00","AK_COOP"
"586","CFCA2","COFFMAN COVE",56.0121,-132.8288,6.45844,"2010-12-16 00:00","AK_COOP"
"587","CFVA2","Coldfoot Visitors Center",67.2527,-150.1866,305,"2012-05-25 00:00","AK_COOP"
"588","FAOA2","COLLEGE OBSERVATORY",64.8603,-147.8484,187.52858,"2010-12-16 00:00","AK_COOP"
"589","CCVA2","COLVILLE RIVER 20 NE Colville Village",70.4322,-150.4094,0,"2010-12-16 00:00","AK_COOP"
"590","COLA2","Cooper Landing 5W",60.4833,-149.9667,148.48514,"2013-01-24 00:00","AK_COOP"
"591","CDV","CORDOVA AIRPORT",60.4888,-145.4511,9.4488,"","AK_COOP"
"592","CDVA2","Cordova North",60.55,-145.7667,-4.612243,"2012-05-01 00:00","AK_COOP"
"593","CWWA2","Cordova Waste Water Treatment Plant",60.5358,-145.7781,0.9291898,"2011-10-01 00:00","AK_COOP"
"594","CFSA2","Craig Forest Service",55.48,-133.1467,0,"2010-12-15 00:00","AK_COOP"
"595","SCC","DEADHORSE",70.19146,-148.48006,17.6784,"","AK_COOP"
"596","DDAA2","Delta Dairyaire",64.1178,-145.7508,325.53714,"2011-10-23 00:00","AK_COOP"
"597","DJTA2","Delta Junction",64.0836,-145.6136,319.28485,"2011-05-22 00:00","AK_COOP"
"598","BIGA2","DELTA JUNCTION 20SE",63.9639,-145.1044,341.2042,"2010-12-16 00:00","AK_COOP"
"599","SAJA2","Delta Junction - Salcha River",64.5247,-146.3703,241.72244,"2012-09-23 00:00","AK_COOP"
"600","DNPA2","DENALI NATIONAL PARK (PREVIOUSLY KNOWN A",63.7175,-148.9692,613.06146,"2010-12-16 00:00","AK_COOP"
"601","DWLA2","Denali - Wonder Lake Ranger",63.4903,-150.8697,634,"2012-05-23 00:00","AK_COOP"
"602","DTLA2","Dot Lake - Alaska Highway",63.6503,-144.0482,465.83646,"2010-12-16 00:00","AK_COOP"
"603","DRYA2","DRY CREEK",63.6772,-144.6011,416.5782,"2010-12-16 00:00","AK_COOP"
"604","DUT","DUTCH HARBOR",53.895,-166.5433,3.048,"2011-10-20 00:00","AK_COOP"
"605","EGLA2","EAGLE",64.7856,-141.2036,271.12015,"2010-12-16 00:00","AK_COOP"
"606","ECBA2","EAGLECREST BASE",58.2664,-134.5011,506.25842,"2010-12-13 00:00","AK_COOP"
"607","ERFA2","Eagle River 5SE",61.2968,-149.4399,136.15353,"2011-10-20 00:00","AK_COOP"
"608","ERTA2","Eagle River Gakona Circle",61.3193,-149.5435,172.68416,"2011-05-09 00:00","AK_COOP"
"609","ERPA2","Eagle River Nature Center",61.2344,-149.2708,159.70761,"2010-12-16 00:00","AK_COOP"
"610","EQPA2","Earthquake Park",61.1959,-149.962,16.242304,"2010-12-16 00:00","AK_COOP"
"611","EFLA2","EAST FARMERS LOOP",64.8972,-147.6814,213.96881,"2010-12-17 00:00","AK_COOP"
"612","EKTA2","Eklutna Water Treatment Plant (Wtp)",61.4495,-149.323,184.12566,"2011-10-01 00:00","AK_COOP"
"613","ELVA2","Elfin Cove",58.1944,-136.3433,36.8183,"2019-02-01 00:00","AK_COOP"
"614","ELV","ELFIN COVE APAID",58.1944,-136.3433,51.371803,"2010-12-16 00:00","AK_COOP"
"615","ESTA2","Ester",64.8464,-148.0256,200.88121,"2011-10-01 00:00","AK_COOP"
"616","ENEA2","ESTER 5NE",64.9125,-147.9361,178.98596,"2010-12-17 00:00","AK_COOP"
"617","STHA2","FAIRBANKS",65.2161,-147.1875,293.96744,"2010-12-16 00:00","AK_COOP"
"618","CNWA2","FAIRBANKS",64.9333,-147.8333,222.53702,"2010-12-16 00:00","AK_COOP"
"619","FAUA2","FAIRBANKS AP #2",64.8172,-147.8739,134.97343,"2010-12-17 00:00","AK_COOP"
"620","FNEA2","FAIRBANKS CRN",64.9735,-147.51,348.12164,"2010-12-07 00:00","AK_COOP"
"621","FAI","FAIRBANKS INTL AP",64.80309,-147.87605,131.064,"","AK_COOP"
"622","FMTA2","Fairbanks Midtown",64.8344,-147.7433,135,"2011-10-16 00:00","AK_COOP"
"623","RPLA2","Fairbanks - Redpoll",64.91143,-147.56771,245,"2019-04-02 00:00","AK_COOP"
"624","UNXA2","Fairbanks - University Exp Station",64.8569,-147.861,134,"2011-10-21 00:00","AK_COOP"
"625","FKMA2","FORT KNOX MINE",65.0033,-147.3408,477.98395,"2010-12-17 00:00","AK_COOP"
"626","YFYA2","Fort Yukon",66.5636,-145.2756,128,"2011-10-25 00:00","AK_COOP"
"627","FYKA2","FORT YUKON #2",66.5665,-145.2658,135.16997,"2010-12-16 00:00","AK_COOP"
"628","FOXA2","Fox",64.9656,-147.6328,323.0005,"2011-10-01 00:00","AK_COOP"
"629","JCTA2","Gakona Junction",62.293,-145.335,502.88742,"2010-12-16 00:00","AK_COOP"
"630","GALA2","Galena",64.7411,-156.8772,39.004528,"2011-05-21 00:00","AK_COOP"
"631","GCQA2","Gilmore Creek",64.9669,-147.5136,427.9525,"2010-12-16 00:00","AK_COOP"
"632","AYBA2","Girdwood - Alyeska Base",60.9592,-149.1081,125.292656,"2010-05-20 00:00","AK_COOP"
"633","AYTA2","Girdwood - Alyeska Weather Top",60.9628,-149.0689,792,"2010-03-08 00:00","AK_COOP"
"634","GLPA2","Glen Alps near Anchorage",61.1,-149.6936,671.2614,"2011-05-20 00:00","AK_COOP"
"635","GSCA2","Goldstream Creek  AT Goldstream Creek",64.8938,-147.8757,175.93436,"2010-12-16 00:00","AK_COOP"
"636","GULA2","GULKANA RIVER 98 N Gulkana River nr Gulkana",62.2667,-145.3833,428.62054,"2011-10-24 00:00","AK_COOP"
"637","GSTA2","Gustavus",58.45,-135.8833,12.594431,"2011-10-01 00:00","AK_COOP"
"638","GUSA2","GUSTAVUS",58.4111,-135.7089,14.06501,"2010-12-13 00:00","AK_COOP"
"639","AHNA2","HAINES #2",59.2381,-135.4494,34.55184,"2010-12-16 00:00","AK_COOP"
"640","HCSA2","Haines Customs",59.4503,-136.36158,249.20488,"2010-12-16 00:00","AK_COOP"
"641","HFHA2","Hidden Falls Hatchery",57.2167,-134.8667,10.75778,"2011-10-01 00:00","AK_COOP"
"642","KLWA2","Hollis",55.4833,-132.6667,0,"2011-10-01 00:00","AK_COOP"
"643","HOMA2","Homer 8NW",59.75,-151.65,306.76157,"2012-08-01 00:00","AK_COOP"
"644","HOM","HOMER AIRPORT",59.64196,-151.49098,19.2024,"","AK_COOP"
"645","HKBA2","Homer Kbrr",59.6411,-151.54,16.773035,"2011-10-25 00:00","AK_COOP"
"646","HOOA2","HOONAH",58.1083,-135.4376,20.756588,"2010-12-16 00:00","AK_COOP"
"647","HOUA2","Houston City Hall",61.6311,-149.8019,82.85009,"2011-10-25 00:00","AK_COOP"
"648","HYDA2","Hyder",55.91218,-130.02068,7.037271,"2010-12-16 00:00","AK_COOP"
"649","ILI","ILIAMNA AIRPORT",59.74922,-154.90903,46.3296,"","AK_COOP"
"650","JNAA2","Juneau",58.3,-134.4,131.92021,"2011-10-01 00:00","AK_COOP"
"651","JNU","JUNEAU AIRPORT",58.354,-134.55606,5.7912,"","AK_COOP"
"652","CIAA2","Juneau - Canyon Island",58.5481,-133.6756,10.9662695,"2010-12-16 00:00","AK_COOP"
"653","JDWA2","Juneau Douglas WWTP",58.2872,-134.3852,20.856192,"2011-10-01 00:00","AK_COOP"
"654","COHA2","Juneau - Glacier Highway",58.4639,-134.7775,57.458183,"2010-12-16 00:00","AK_COOP"
"655","JLPA2","JUNEAU LENA POINT",58.3881,-134.765,53.90586,"2010-12-17 00:00","AK_COOP"
"656","JMSA2","Juneau Mile 11",58.403,-134.753,63.05257,"2011-10-01 00:00","AK_COOP"
"657","JOPA2","Juneau Outer Point",58.2947,-134.6728,34.111828,"2011-10-01 00:00","AK_COOP"
"658","HMRA2","KACHEMAK BAY NEAR HOMER",59.6008,-151.4097,6.5719447,"2010-12-07 00:00","AK_COOP"
"659","KCKA2","KACHEMAK CREEK SNOTEL",59.72893,-150.66113,506,"2011-05-20 00:00","AK_COOP"
"660","APXA2","KACHEMAK NERRS MET SITE AT ANCHOR POINT",59.7747,-151.8667,6.237492,"2010-12-07 00:00","AK_COOP"
"661","DIKA2","Kandrik River near Eagle",65.5662,-141.5208,375.67493,"2011-10-10 00:00","AK_COOP"
"662","ENA","KENAI AIRPORT",60.57909,-151.24152,30.1752,"","AK_COOP"
"663","KEYA2","KENAI RIVER  E Kenai River at Kenai Keys",60.5278,-150.6,108.56111,"2011-10-25 00:00","AK_COOP"
"664","KEWA2","Kenai West",60.5735,-151.307,26.295914,"2010-12-16 00:00","AK_COOP"
"665","KTAA2","KETCHIKAN 13N",55.453,-131.8188,99.627365,"2010-12-16 00:00","AK_COOP"
"666","KTN","KETCHIKAN AIRPORT",55.3586,-131.72195,25.6032,"","AK_COOP"
"667","KERA2","Keystone Ridge",64.9156,-148.2711,479.03046,"2011-10-24 00:00","AK_COOP"
"668","KNGA2","King&#039;S Lake",61.6181,-149.3678,136.14445,"2010-12-16 00:00","AK_COOP"
"669","KWPA2","Klawock 1ESE - Water Plant",55.5515,-133.0646,30.211132,"2019-11-01 00:00","AK_COOP"
"670","AKW","KLAWOCK AIRPORT",55.58191,-133.07468,20.7264,"","AK_COOP"
"671","KDTA2","Kodiak 12Th Avenue",57.794,-152.388,24.66084,"2010-12-16 00:00","AK_COOP"
"672","KKBA2","Kodiak - Kitoi Bay Hatchery",58.1913,-152.3722,9.112984,"2011-10-01 00:00","AK_COOP"
"673","KWWA2","Kodiak Waste Water Treatment Plant",57.8048,-152.3561,19.058645,"2011-10-20 00:00","AK_COOP"
"674","OTZ","KOTZEBUE AIRPORT",66.88569,-162.6068,3.3528,"","AK_COOP"
"675","KTUA2","Ktuu Midtown Anchorage",61.1819,-149.87,36.041256,"2010-12-16 00:00","AK_COOP"
"676","MCGA2","KUSKOKWIM RIVER 1 ENE Kuskokwim River at McGrath",62.95,-155.5833,99,"2012-01-06 00:00","AK_COOP"
"677","LMHA2","LAKE MINCHUMINA",63.8933,-152.3106,274.31607,"2010-12-07 00:00","AK_COOP"
"678","5WO","LAZY MOUNTAIN",61.6266,-149.0365,223.4184,"2012-06-01 00:00","AK_COOP"
"679","SITA2","Little Port Walter near Sitka",56.3833,-134.65,19.412035,"2011-10-01 00:00","AK_COOP"
"680","LSOA2","LITTLE SUSITNA  AT Little Su at Hatcher Pass Bridge",61.7097,-149.2319,283.02512,"2010-12-16 00:00","AK_COOP"
"681","LSHA2","LITTLE SUSITNA RIVER  AT Little Susitna at Houston",61.6272,-149.8011,67,"2012-05-10 00:00","AK_COOP"
"682","MLYA2","Manley Hot Springs 15NE",65.135,-150.223,160,"2016-06-01 00:00","AK_COOP"
"683","MCG","MCGRATH AP",62.9574,-155.61009,100.8888,"2014-06-01 00:00","AK_COOP"
"684","MSTA2","Mentasta Lake 7E - Bartell Creek",62.9331,-143.5742,722.61,"2011-10-01 00:00","AK_COOP"
"685","MPUA2","Metlakatla 3SSW - Power",55.0856,-131.5902,39.153248,"2019-11-01 00:00","AK_COOP"
"686","PWMA2","Midtown Estates - West Palmer",61.6054,-149.2316,101.35526,"2010-12-16 00:00","AK_COOP"
"687","MISA2","Mississippi near Delta Junction",63.8888,-145.8695,475.37277,"2011-10-25 00:00","AK_COOP"
"688","DAMA2","MONASHKA CREEK DAM",57.8426,-152.4585,51.346798,"2011-10-01 00:00","AK_COOP"
"689","MONA2","MONTANA CREEK 15 S Montana Creek nr Montana",62.1047,-150.0602,73.84257,"2010-12-07 00:00","AK_COOP"
"690","MOPA2","Moose Pass 3NW",60.5029,-149.4261,181,"2012-09-02 00:00","AK_COOP"
"691","NILA2","Ninilchik Hillside",60.0575,-151.2525,426.3026,"2010-12-16 00:00","AK_COOP"
"692","NINA2","NINILCHIK RIVER  NNW Ninilchik River at Ninilchik",60.0483,-151.665,24,"2011-10-24 00:00","AK_COOP"
"693","OME","NOME AIRPORT",64.51112,-165.44002,5.4864,"","AK_COOP"
"694","NEDA2","Northeast Anchorage",61.2043,-149.7277,89.35222,"2010-12-16 00:00","AK_COOP"
"695","NOPA2","NORTH POLE",64.75,-147.3333,147.95235,"2010-12-17 00:00","AK_COOP"
"696","HRLA2","North Pole - Harding Lake",64.4365,-146.8174,222,"2016-02-03 00:00","AK_COOP"
"697","PMHA2","North Potter Heights",61.0558,-149.7644,316.06757,"2010-12-16 00:00","AK_COOP"
"698","OBRA2","O'BRIEN CREEK AT TAYLOR HWY 23 NE OBrien Creek at Taylor Hwy",64.3158,-141.4169,409.45038,"2012-06-20 00:00","AK_COOP"
"699","PAQ","PALMER AIRPORT",61.59505,-149.09175,71.0184,"2016-11-20 00:00","AK_COOP"
"700","PMLA2","Palmer Job Corps",61.5888,-149.0992,65.71677,"2011-10-22 00:00","AK_COOP"
"701","PALA2","Palmer - Matanukska Exp Farm",61.5664,-149.2542,50.96499,"2011-10-01 00:00","AK_COOP"
"702","ACRA2","PARKS HIGHWAY AT ANTLER CREEK",63.8096,-148.9646,530.9479,"2010-12-16 00:00","AK_COOP"
"703","PECA2","PELICAN",57.9606,-136.2292,64.9614,"2010-12-16 00:00","AK_COOP"
"704","APGA2","Petersburg",56.8055,-132.9372,26.450365,"2019-02-10 00:00","AK_COOP"
"705","PSG","PETERSBURG AIRPORT",56.8014,-132.9453,29.965548,"2010-12-17 00:00","AK_COOP"
"706","SEBA2","Peters Creek",61.4179,-149.447,108.542496,"2010-12-16 00:00","AK_COOP"
"707","PTBA2","POINT BAKER",56.3533,-133.6214,6.679821,"2010-12-16 00:00","AK_COOP"
"708","PORA2","PORTAGE GLACIER VISITOR CENTER",60.78351,-148.84839,32.6136,"","AK_COOP"
"709","PACA2","PORT ALCAN",62.6209,-141.0069,605.066,"2010-12-16 00:00","AK_COOP"
"710","KTNA2","Power House",55.3833,-131.4667,0,"2011-10-02 00:00","AK_COOP"
"711","APNA2","Prudhoe Bay - Alpine Airstrip",70.3461,-150.9283,1,"2012-09-26 00:00","AK_COOP"
"712","GLNA2","RADIO STATION KCAM",62.1167,-145.5333,439.47754,"2010-12-16 00:00","AK_COOP"
"713","RUBA2","RUBY 14NE",64.8694,-155.1178,66.775,"2010-12-16 00:00","AK_COOP"
"714","SNP","SAINT PAUL ISLAND AIRPORT",57.15505,-170.22272,7.9248,"","AK_COOP"
"715","SNPA2","SAINT PAUL ISLAND CRN",57.1575,-170.2119,6.0461864,"2010-12-07 00:00","AK_COOP"
"716","SDP","SAND POINT AP",55.31944,-160.52083,6.4008,"","AK_COOP"
"717","TOKA2","SCHOOL",63.3333,-142.9833,500.15677,"2010-12-16 00:00","AK_COOP"
"718","SWHA2","Seward 19N",60.3538,-149.3483,174,"2012-08-01 00:00","AK_COOP"
"719","SWDA2","Seward 8NW",60.2,-149.6167,112.42627,"2012-08-01 00:00","AK_COOP"
"720","LOMA2","Seward Highway And Huffman",61.1058,-149.8425,57.912178,"2010-12-16 00:00","AK_COOP"
"721","SIT","SITKA AIRPORT",57.04746,-135.36703,6.096,"","AK_COOP"
"722","SIKA2","SITKA CRN",57.0574,-135.3266,26.82615,"2010-12-07 00:00","AK_COOP"
"723","SWPA2","Sitka Wtp",57.0467,-135.3497,4.6021028,"2011-10-22 00:00","AK_COOP"
"724","SGCA2","SKAGWAY 6NE",59.5272,-135.2319,328.8277,"2010-12-16 00:00","AK_COOP"
"725","SKGA2","SKAGWAY RIVER 98 N Skagway River nr Skagway",59.4547,-135.3136,17.271471,"2011-10-01 00:00","AK_COOP"
"726","SKWA2","SKWENTNA RIVER 98 N Skwentna River at Skwentna",61.9619,-151.1669,58.44277,"2012-05-14 00:00","AK_COOP"
"727","SPPA2","SNETTISHAM POWER PLANT",58.1422,-133.7386,25.28176,"2010-12-16 00:00","AK_COOP"
"728","SODA2","Soldotna 5SSW",60.4194,-151.1336,59.09307,"2012-08-01 00:00","AK_COOP"
"729","LONA2","Sterling - Longmiere Lake",60.4903,-150.9194,80,"2012-08-01 00:00","AK_COOP"
"730","SCUA2","Sutton Curve",61.736,-148.7738,170.73253,"2010-12-16 00:00","AK_COOP"
"731","TKA","TALKEETNA AIRPORT",62.31978,-150.09744,106.68,"","AK_COOP"
"732","TAL","TANANA AIRPORT",65.173,-152.10677,68.58,"2012-09-23 00:00","AK_COOP"
"733","MHSA2","TANANA RIVER 45 ESE Tanana River at Manley Hot Springs-",65.0014,-150.6322,80,"2012-04-24 00:00","AK_COOP"
"734","THBA2","THORNE BAY WATER",55.6986,-132.5273,102.31402,"2010-12-15 00:00","AK_COOP"
"735","TOAA2","TOK #2",63.3155,-143.0053,504.0099,"2010-12-16 00:00","AK_COOP"
"736","TOFA2","Tok Forestry",63.3333,-142.9972,504.08255,"2012-05-01 00:00","AK_COOP"
"737","UHSA2","Upper Hillside",61.1167,-149.7167,424.03564,"2010-12-16 00:00","AK_COOP"
"738","VCOA2","Valdez",61.1342,-146.356,23,"2014-03-01 00:00","AK_COOP"
"739","WNHA2","Wally Noerenburg Hatchery",60.7986,-148.0872,10.445292,"2011-10-24 00:00","AK_COOP"
"740","MXYA2","W.F. KENNICOTT RIVER 58 NW Kennicott River nr McCarthy",61.418,-142.9961,385,"2012-03-22 00:00","AK_COOP"
"741","WMO","WHITE MOUNTAIN",64.68333,-163.39999,6.096,"","AK_COOP"
"742","WITA2","WHITESTONE FARMS",64.1539,-145.8894,303.8431,"2010-12-17 00:00","AK_COOP"
"743","WHIA2","Whittier - Main Bay",60.5,-148.0833,472.71048,"2012-05-01 00:00","AK_COOP"
"744","WILA2","WILLOW CREEK  N Willow Creek at Willow",61.7672,-150.0667,46.38431,"2012-04-28 00:00","AK_COOP"
"745","WLLA2","Willow Long Lake",61.7183,-150.0675,84.55029,"2010-12-16 00:00","AK_COOP"
"746","WSMA2","WISEMAN",67.4192,-150.1069,360,"2010-12-16 00:00","AK_COOP"
"747","WODA2","WOODSMOKE",64.7802,-147.275,146,"2010-12-17 00:00","AK_COOP"
"748","WRG","WRANGELL AP",56.4732,-132.38741,17.0688,"2011-10-19 00:00","AK_COOP"
"749","YPWA2","Yakutat 1SE - Power",59.545,-139.7249,37.19725,"2019-11-01 00:00","AK_COOP"
"750","YAK","YAKUTAT AIRPORT",59.51211,-139.67104,12.4968,"","AK_COOP"
"751","YLKA2","YENTNA RIVER 10 ESE Yentna River at Lake Creek",61.9058,-150.9069,30,"2011-10-24 00:00","AK_COOP"
"752","LMHA2","1 N Lake Minchumina",63.8933,-152.3106,274.31607,"2010-12-07 00:00","AK_DCP"
"753","PRDA2","20 NNW NWLON Station near Prudhoe Bay",70.4,-148.5267,-2,"2014-04-16 00:00","AK_DCP"
"754","SFKA2","25 NE South Fork Koyukuk River at Dalton Hwy",67.0197,-150.2928,345,"2014-07-23 00:00","AK_DCP"
"755","TYWA2","38 ESE Tyee Lake Outlet near Wrangell",56.2,-131.50667,501.9424,"2011-10-19 00:00","AK_DCP"
"756","FMLA2","48 Mile Pond Ice",64.9966,-146.2191,274.5828,"2011-11-01 00:00","AK_DCP"
"757","WHLA2","AAMT WHITTIER STAGING AREA",60.7833,-148.7711,899.69507,"2010-12-16 00:00","AK_DCP"
"758","ADKA2","Adak Station - NOS",51.8633,-176.6317,6.0384974,"2015-09-06 00:00","AK_DCP"
"759","UNK","AIRPORT",63.8886,-160.7992,2,"2010-12-13 00:00","AK_DCP"
"760","KNMA2","AK KENAI 29 ENE",60.7257,-150.4508,85.95602,"2010-12-07 00:00","AK_DCP"
"761","PWHA2","AK PORT ALSWORTH 1 SW",60.1951,-154.3196,97.82472,"2010-12-07 00:00","AK_DCP"
"762","RDMA2","AK RED DOG MINE 3 SSW",68.0276,-162.9213,284.32928,"2010-12-07 00:00","AK_DCP"
"763","SNTA2","AK SAND POINT 1 ENE",55.3473,-160.466,73.74872,"2010-12-07 00:00","AK_DCP"
"764","DTLA2","ALASKA HWY AT DOT LAKE",63.6503,-144.0482,449.13565,"2010-12-16 00:00","AK_DCP"
"765","ALCA2","Alcan Border",62.6205,-141.0075,606,"2013-02-01 00:00","AK_DCP"
"766","ALHA2","Alcan Hwy RAWS",62.83306,-141.40917,581.81006,"2012-06-06 00:00","AK_DCP"
"767","SPHA2","Alcan - Paradise Hill",62.8332,-141.4091,614,"2021-09-30 00:00","AK_DCP"
"768","ALDA2","Alder Drive",61.2,-149.83,32.002323,"2011-10-23 00:00","AK_DCP"
"769","AKDA2","Aleknagik - Aleknagik Lake",59.2793,-158.628,3.3414745,"2018-05-31 00:00","AK_DCP"
"770","ALXA2","ALEXANDER LAKE SNOTEL",61.75,-150.89,48.8,"2014-11-26 00:00","AK_DCP"
"771","ALIA2","Alitak - NWLON",56.898,-154.247,5.9087267,"2015-09-06 00:00","AK_DCP"
"772","ALNA2","ALLEN RIVER NEAR ALEKNAGIK",60.15,-158.73333,209.21577,"2011-09-29 00:00","AK_DCP"
"773","ALEA2","Alsek River At Dry Bay",59.1906,-138.3267,18.204268,"2011-07-15 00:00","AK_DCP"
"774","ALKA2","ALSEK RIVER NEAR YAKUTAT",59.395,-138.0819,77,"2010-12-07 00:00","AK_DCP"
"775","AYBA2","ALYESKA BASE",60.9592,-149.1081,113.042496,"2010-05-20 00:00","AK_DCP"
"776","AYTA2","ALYESKA WEATHER TOP",60.9628,-149.0689,829.8865,"2010-03-08 00:00","AK_DCP"
"777","KAUA2","Ambler - Kaluich",67.5731,-158.4317,490,"2012-09-06 00:00","AK_DCP"
"778","ABLA2","Ambler - Kobuk River",67.0869,-157.8475,23,"2012-03-30 00:00","AK_DCP"
"779","AMCA2","AMERICAN CREEK SNOTEL",64.78969,-141.23376,320,"2011-10-24 00:00","AK_DCP"
"780","ISLA2","Anaktuvuk Pass",68.5258,-149.4783,903,"2012-04-03 00:00","AK_DCP"
"781","WPAA2","Anchorage 3SE - Waldron Pond",61.1781,-149.8508,45,"2018-01-05 00:00","AK_DCP"
"782","ARCA2","Anchorage - Artic Valley",61.2453,-149.5189,883,"2011-10-24 00:00","AK_DCP"
"783","BAYA2","Anchorage - Bayshore",61.1294,-149.9397,10,"2013-05-10 00:00","AK_DCP"
"784","GAHA2","Anchorage - Glen Alps",61.09972,-149.69404,537.0579,"2010-12-16 00:00","AK_DCP"
"785","HRHA2","Anchorage - Hillside Road",61.1089,-149.7417,331.45697,"2010-12-16 00:00","AK_DCP"
"786","HILA2","ANCHORAGE HILLSIDE SNOTEL",61.11483,-149.66683,634,"2011-05-20 00:00","AK_DCP"
"787","LHIA2","Anchorage Lake Hood Ice",61.18,-149.9719,21.000008,"2011-11-18 00:00","AK_DCP"
"788","AMHA2","ANCHORAGE MIDDLE HILLSIDE",61.1043,-149.7688,252.0002,"2010-12-16 00:00","AK_DCP"
"789","EPYA2","Anchorage - Mobile Deploy 2",61.175,-149.9933,27.263046,"2012-01-23 00:00","AK_DCP"
"790","SERA2","Anchorage - Seattle Ridge",60.8332,-149.1602,617.2596,"2010-12-16 00:00","AK_DCP"
"791","SVCA2","ANCHORAGE SERVICE HIGH SCHOOL",61.1385,-149.906,21.06668,"2010-12-16 00:00","AK_DCP"
"792","SHRA2","Anchorage - Seward Hwy",61.1089,-149.8486,61,"2010-12-16 00:00","AK_DCP"
"793","TSAA2","Anchorage - Test Platform A",61.1561,-149.9839,40,"2013-06-14 00:00","AK_DCP"
"794","UPDA2","Anchorage - Upper de Armoun",61.0995,-149.7105,365,"2012-10-04 00:00","AK_DCP"
"795","APBA2","ANCHOR RIVER 1 SSW Anchor River at Anchor Point",59.7722,-151.8363,9,"2010-12-16 00:00","AK_DCP"
"796","APTA2","ANCHOR RIVER 4 SE Anchor River at New Sterling Hwy",59.7472,-151.7531,52.88355,"2010-12-07 00:00","AK_DCP"
"797","ARDA2","ANCHOR RIVER DIVIDE SNOTEL",59.85972,-151.315,503.8,"2011-05-20 00:00","AK_DCP"
"798","AGLA2","ANGEL CREEK RAWS",65.02,-146.2281,306,"2010-12-07 00:00","AK_DCP"
"799","KRIA2","Aniak 2E - Kuskokwim River",61.5873,-159.4705,20,"2021-03-02 00:00","AK_DCP"
"800","NAPA2","Aniak - Kuskokwin River",61.5333,-158.6833,54.41401,"2012-04-07 00:00","AK_DCP"
"801","KRAA2","Aniak - Kusko River",61.5872,-159.5483,20,"2012-04-07 00:00","AK_DCP"
"802","AMBA2","ANIAK SCAN",61.58337,-159.57708,80,"2011-05-20 00:00","AK_DCP"
"803","AAKA2","ANTLER RIVER 32 NW Antler River nr Auke Bay",58.8519,-134.7086,51,"2012-03-30 00:00","AK_DCP"
"804","ASIA2","Asiak RAWS",67.475,-162.26639,249.3865,"2012-09-06 00:00","AK_DCP"
"805","ANTA2","AT Anchorage NOS",61.2341,-149.8841,15,"2014-04-16 00:00","AK_DCP"
"806","ATKA2","AT Atka",52.232,-174.173,0.9002797,"2015-09-06 00:00","AK_DCP"
"807","CRVA2","AT Cordova NOS",60.5583,-145.7533,72.046326,"2014-04-16 00:00","AK_DCP"
"808","CKDA2","AT Crooked Creek at Airport Rd Bridge",61.8717,-158.1236,49.5334,"2010-12-07 00:00","AK_DCP"
"809","ELFA2","AT Elfin Cove",58.193,-136.343,46,"2014-04-16 00:00","AK_DCP"
"810","ATGA2","ATIGUN PASS SNOTEL",68.12983,-149.47817,1463,"2011-05-20 00:00","AK_DCP"
"811","ARGA2","Atigun River  AT Atigun River below Galbraith Lake",68.4528,-149.3683,800.7926,"2010-12-07 00:00","AK_DCP"
"812","JNEA2","AT Juneau NOS",58.2983,-134.4117,7,"2014-04-16 00:00","AK_DCP"
"813","KECA2","AT Ketchikan NOS",55.333,-131.625,7,"2014-04-16 00:00","AK_DCP"
"814","NKTA2","AT Nikiski NOS",60.6833,-151.3856,38.12111,"2014-04-16 00:00","AK_DCP"
"815","NMTA2","AT Nome NOS",64.5,-165.4189,-0.004896,"2014-04-16 00:00","AK_DCP"
"816","PLXA2","AT Port Alexander",56.2467,-134.6467,13,"2015-09-06 00:00","AK_DCP"
"817","OVIA2","AT Seldovia NOS",59.44,-151.72,-0.00010943995,"2014-04-16 00:00","AK_DCP"
"818","ITKA2","AT Sitka NOS",57.0517,-135.3417,9,"2014-04-16 00:00","AK_DCP"
"819","SKTA2","AT Skagway NOS",59.45,-135.318,8,"2014-04-16 00:00","AK_DCP"
"820","SUDA2","AT Susitna River at Denali Hwy.",63.1039,-147.5158,746,"2010-12-07 00:00","AK_DCP"
"821","UBLA2","AT Ublutuoch River near Nuiqsut",70.2431,-151.2969,15.408863,"2010-12-07 00:00","AK_DCP"
"822","YATA2","AT Yakutat NOS",59.548,-139.735,1,"2014-04-16 00:00","AK_DCP"
"823","HBRA2","Auke Bay 11NNW - Herbert River",58.524,-134.795,21.25313,"2021-02-28 00:00","AK_DCP"
"824","DCRA2","Auke Bay 22NNW - Davies Creek Ridge",58.6935,-134.8505,541.7822,"2021-09-30 00:00","AK_DCP"
"825","DCVA2","Auke Bay 22NNW - Davies Creek Valley",58.6728,-134.8553,94.716995,"2021-09-29 00:00","AK_DCP"
"826","TSLA2","Auke Bay 4W - Ted Stevents Lena",58.3896,-134.7696,13.334002,"2021-10-04 00:00","AK_DCP"
"827","ABYA2","AUKE BAY LAB DOCK",58.3817,-134.6453,14.303621,"2010-12-16 00:00","AK_DCP"
"828","GOAA2","Auke Bay - Mendenhall Loop",58.3864,-134.5417,356.16937,"2010-12-16 00:00","AK_DCP"
"829","MNBA2","Auke Bay - Mendenhall River",58.4042,-134.5844,18,"2011-10-24 00:00","AK_DCP"
"830","AKLA2","Auke Lake  AT Auke Lake near Auke Bay",58.3861,-134.6383,21,"2011-10-21 00:00","AK_DCP"
"831","BROA2","BARROW CRN",71.3213,-156.611,6.096074,"2010-12-07 00:00","AK_DCP"
"832","PBTA2","Barrow - Point Barrow Model TIde",71.3666,-156.3666,-4.107781,"2015-08-23 00:00","AK_DCP"
"833","BCGA2","BATTLE CREEK BELOW GLACIER NEAR HOMER",59.7386,-150.8969,234.12447,"2010-12-21 00:00","AK_DCP"
"834","BATA2","BATTLE CREEK NEAR HOMER",59.7556,-150.9533,91.78848,"2010-12-07 00:00","AK_DCP"
"835","BRKA2","Bear Creek  AT Bear Creek near Iliamna",59.8244,-154.8822,89.155525,"2010-12-07 00:00","AK_DCP"
"836","WBQA2","BEAVER CREEK",66.2614,-146.5308,116.02306,"2010-12-07 00:00","AK_DCP"
"837","BEAA2","BEAVER CREEK ABOVE VICTORIA CREEK",65.8056,-146.6486,235,"2010-12-07 00:00","AK_DCP"
"838","BVMA2","BEAVER CREEK NEAR MICHEL LAKE NEAR BEAVE",66.2217,-146.7622,112.05115,"2010-12-07 00:00","AK_DCP"
"839","BVRA2","Beaver - Yukon River",66.3592,-147.3911,105,"2012-05-07 00:00","AK_DCP"
"840","BLGA2","Beluga near Tyonek",60.1722,-151.0436,126.14552,"2011-05-20 00:00","AK_DCP"
"841","BENA2","BEN CREEK NR FT YUKON",65.2756,-143.0803,610.3592,"2010-12-07 00:00","AK_DCP"
"842","BEFA2","Bens Farm near Palmer",61.5632,-149.1542,36.67264,"2011-10-01 00:00","AK_DCP"
"843","BLSA2","BENTALIT RAWS",61.93583,-150.98583,45.7,"2010-12-07 00:00","AK_DCP"
"844","BGLA2","BERING GLACIER",60.1186,-143.2833,15,"2010-12-07 00:00","AK_DCP"
"845","BEBA2","Berners Bay",58.775,-135.03306,57.416492,"2021-08-10 00:00","AK_DCP"
"846","BSDA2","Bethel 3W - IGage",60.7853,-161.834,34,"2021-09-30 00:00","AK_DCP"
"847","BFLA2","BETTLES FIELD SNOTEL",66.91667,-151.53333,195.1,"2011-10-24 00:00","AK_DCP"
"848","JMTA2","Bettles - Jim River",66.8234,-150.664,320,"2015-09-22 00:00","AK_DCP"
"849","PAMA2","Bettles - Pamichtuk Lake",67.7717,-152.1947,812,"2012-09-06 00:00","AK_DCP"
"850","HKLA2","Big Lake - Parks Highway at Hawk Lane",61.58499,-149.74521,70,"2010-12-16 00:00","AK_DCP"
"851","BGQA2","BIG LAKE RAWS",61.5264,-149.8798,89.17294,"2010-12-07 00:00","AK_DCP"
"852","BCTA2","BIRCH CREEK ABOVE TWELVEMILE CREEK NEAR",65.3975,-145.7006,606,"2010-12-07 00:00","AK_DCP"
"853","BIRA2","BIRCH CREEK NR CIRCLE HOT SPRINGS",65.5847,-144.3636,260.4246,"2010-12-07 00:00","AK_DCP"
"854","BRLA2","Birch Lake Ice",64.3153,-146.6465,244.49911,"2011-11-01 00:00","AK_DCP"
"855","BLCA2","BLACK CAPE RAWS",58.4067,-152.8864,5.714947,"2010-12-07 00:00","AK_DCP"
"856","BLAA2","BLACK LAKE",57.1792,-157.2781,69.070175,"2010-12-07 00:00","AK_DCP"
"857","BLOA2","BLACK LAKE OUTLET NEAR CHIGNIK LAKE",56.4181,-158.9492,9,"2010-12-07 00:00","AK_DCP"
"858","BKSA2","BLAIR LAKES RAWS",64.3858,-147.6953,222.99112,"2010-12-07 00:00","AK_DCP"
"859","BTAA2","Bolio",63.8633,-145.8636,491.38046,"2011-04-26 00:00","AK_DCP"
"860","BNZA2","BONANZA CREEK NEAR MCCARTHY",61.5006,-142.8725,950.07275,"2010-12-07 00:00","AK_DCP"
"861","BTLA2","BOOTH LAKE",57.2678,-154.565,67.22184,"2010-12-07 00:00","AK_DCP"
"862","BRIA2","Bradley Lake Inflow",59.76,-150.83972,560.05225,"","AK_DCP"
"863","BRRA2","BRADLEY RIVER 25 ENE Bradley River blw Dam nr Homer",59.7583,-150.8506,354,"2010-12-07 00:00","AK_DCP"
"864","BRTA2","BRADLEY RIVER 25 ENE Bradley River nr Tidewater nr Homer",59.8017,-150.8828,23,"2010-12-07 00:00","AK_DCP"
"865","BRUA2","BRADLEY RIVER 29 E Upper Bradley River nr Nuka Glacier nr Homer",59.7006,-150.7025,355.48947,"2010-12-07 00:00","AK_DCP"
"866","BRNA2","Bradley River  AT Middle Fork Bradley blw North Fork",59.7983,-150.8633,120.21637,"2010-12-07 00:00","AK_DCP"
"867","KCSA2","Bruno Road",60.1799,-149.3821,62,"2021-08-30 00:00","AK_DCP"
"868","BKLA2","Buckland RAWS",65.908,-160.8743,118.197685,"2012-07-18 00:00","AK_DCP"
"869","BUSA2","BUSKIN RIVER NEAR KODIAK",57.7583,-152.5131,18.472704,"2010-12-07 00:00","AK_DCP"
"870","BTEA2","Butte",61.5333,-148.9947,20.407759,"2011-10-24 00:00","AK_DCP"
"871","CCSA2","Campbell Creek 6 S Campbell Creek nr Dimond",61.1394,-149.9233,7,"2010-12-07 00:00","AK_DCP"
"872","CBKA2","CAMPBELL CREEK TRACT RAWS",61.1586,-149.7967,67.41695,"2010-12-07 00:00","AK_DCP"
"873","CANA2","CANNING RIVER NEAR KAKTOVIK",69.5255,-146.2309,359.52158,"2010-12-07 00:00","AK_DCP"
"874","CLAA2","CANYON LAKE SCAN",59.42,-161.16,167.6,"2014-12-01 00:00","AK_DCP"
"875","CKLA2","CAPE KIAVAK RAWS",56.9992,-153.5419,0,"2010-12-07 00:00","AK_DCP"
"876","SECA2","CAPE ST. ELIAS WX ARRAY",59.7981,-144.5988,18.027502,"2010-12-16 00:00","AK_DCP"
"877","CRBA2","CARIBOU LAKE",59.8997,-151.0575,379.32608,"2010-12-07 00:00","AK_DCP"
"878","CARA2","Carlanna Lake Dam",55.36833,-131.69139,161,"2021-09-03 00:00","AK_DCP"
"879","CENA2","Central",65.4958,-144.6533,262.05435,"2011-06-04 00:00","AK_DCP"
"880","CTEA2","CENTRAL",65.5667,-144.7653,275.4509,"2010-12-16 00:00","AK_DCP"
"881","CKCA2","CHAKACHATNA RIVER NEAR TYONEK",61.2122,-152.3572,365.83658,"2010-12-07 00:00","AK_DCP"
"882","PRCA2","Chalkyitsik - Porcupine River",67.0779,-142.4789,175,"2011-05-21 00:00","AK_DCP"
"883","CIKA2","CHALKYITSIK WEST",66.5906,-144.3411,147,"2010-12-07 00:00","AK_DCP"
"884","CHTA2","CHATANIKA RAWS NR",65.0167,-148.6,363.45074,"2010-12-07 00:00","AK_DCP"
"885","CRSA2","CHATANIKA RIVER 24 NE Chatanika River at Steese Hwy Bridge",65.1906,-147.2542,231.24312,"2011-10-25 00:00","AK_DCP"
"886","CHAA2","CHATANIKA RIVER 9 NNW Chatanika River at Elliott Hwy Bridge",65.0853,-147.7217,170.93141,"2011-12-01 00:00","AK_DCP"
"887","CECA2","CHECKERS CREEK SCAN",65.4,-164.71,99.4,"2014-12-01 00:00","AK_DCP"
"888","CKKA2","CHEKIOK CREEK NEAR PEDRO BAY",59.85722,-154.37639,110.47026,"2011-08-16 00:00","AK_DCP"
"889","MTCA2","Chena Hot Springs - Montana Creek",65.36,-146.0864,629,"2015-09-22 00:00","AK_DCP"
"890","CNRA2","CHENA HOT SPRINGS RESORT",65.0528,-146.0561,353.32727,"2010-12-16 00:00","AK_DCP"
"891","CNPA2","Chena Lakes Ice",64.7686,-147.2133,151.23688,"2011-11-01 00:00","AK_DCP"
"892","CHFA2","Chena River 1 ENE Chena River at Fairbanks",64.8458,-147.7011,135,"2010-12-07 00:00","AK_DCP"
"893","CRHA2","CHENA RIVER 26 WSW Chena River blw Hunts Creek",64.86,-146.8033,181,"2010-12-07 00:00","AK_DCP"
"894","UCHA2","CHENA RIVER 39 ENE Chena River nr Two Rivers",64.90278,-146.35694,228.1808,"2011-04-21 00:00","AK_DCP"
"895","MCDA2","CHENA RIVER 3 NE Chena River nr North Pole",64.80083,-147.22778,150,"2011-04-22 00:00","AK_DCP"
"896","CNDA2","Chena River At Nordale Road",64.8466,-147.4096,140.80957,"2011-11-30 00:00","AK_DCP"
"897","CPIA2","Chena River At Pikes Landing Ice",64.8311,-147.8472,129.5566,"2011-11-30 00:00","AK_DCP"
"898","CHYA2","Cheney Lake",61.2019,-149.76,64.8573,"2011-11-28 00:00","AK_DCP"
"899","CHRA2","CHESTER CREEK 98 N Chester Creek at Arctic Blvd",61.2053,-149.8333,41,"2010-12-07 00:00","AK_DCP"
"900","HRPA2","Chickaloon - Horsepasture Pass",62.1333,-147.6333,1285.9634,"2014-11-26 00:00","AK_DCP"
"901","CKNA2","CHICKEN",64.0506,-141.9317,513.47473,"2010-12-07 00:00","AK_DCP"
"902","CREA2","CHICKEN CREEK",62.1242,-141.8453,1557.4739,"2010-12-07 00:00","AK_DCP"
"903","CHCA2","CHIEF COVE RAWS",57.7294,-153.9325,2.5133462,"2010-12-07 00:00","AK_DCP"
"904","CGMA2","CHIGMIT MOUNTAINS",60.2231,-153.4581,1221.7301,"2010-12-07 00:00","AK_DCP"
"905","CRWA2","Chignik Lake 2ENE - Chignik River",56.2622,-158.7053,14.254836,"2017-07-01 00:00","AK_DCP"
"906","CKTA2","Chilkat River 98 N Chilkat River at Klukwan",59.3981,-135.8928,40,"2010-12-16 00:00","AK_DCP"
"907","CKPA2","Chilkoot Pass near Skagway",59.6956,-135.2592,1282.3488,"2010-12-07 00:00","AK_DCP"
"908","CHMA2","Chimney Lake RAWS",67.75583,-150.49333,756,"2012-09-06 00:00","AK_DCP"
"909","CCPA2","CHINKELYES CREEK NEAR PEDRO BAY",59.7044,-153.71,162.70645,"2010-12-07 00:00","AK_DCP"
"910","CSNA2","CHISANA AIRSTRIP",62.1333,-142.0833,964,"2010-12-07 00:00","AK_DCP"
"911","CRNA2","CHISANA RIVER 5 NE Chisana River at Northway",63.0064,-141.8047,536,"2012-05-02 00:00","AK_DCP"
"912","CNAA2","CHISANA SNOTEL",62.069,-142.049,1011.9,"2011-05-20 00:00","AK_DCP"
"913","CZOA2","CHISTOCHINA",62.5653,-144.6647,565.8504,"2010-12-07 00:00","AK_DCP"
"914","EGHA2","CHITINA AIRPORT",61.5828,-144.4272,158.02274,"2010-12-16 00:00","AK_DCP"
"915","COBA2","Chitina - Copper River",61.4828,-144.4536,183,"2012-06-06 00:00","AK_DCP"
"916","CXCA2","CHITINA RAWS",61.5319,-144.4397,403.0768,"2010-12-07 00:00","AK_DCP"
"917","TEKA2","Chitina - Tiekel",61.2953,-145.3336,1594.2988,"2011-05-21 00:00","AK_DCP"
"918","CTUA2","Chititu Camp",61.2708,-142.6269,1273.1593,"2011-06-25 00:00","AK_DCP"
"919","CPAA2","Chulitna River  AT Chulitna River near Port Alsworth",60.1828,-154.5758,88.463974,"2010-12-07 00:00","AK_DCP"
"920","CLTA2","Chulitna River  AT Chulitna River near Talkeetna",62.5586,-150.2339,165,"2012-06-04 00:00","AK_DCP"
"921","BCCA2","Circle",65.86667,-144.25,178,"2022-07-28 00:00","AK_DCP"
"922","CIRA2","Circle City",65.8333,-144.0667,178.23253,"2012-05-03 00:00","AK_DCP"
"923","CLEA2","Clear Creek  AT Clear Creek near Hog River",66.2198,-155.5876,103.97583,"2010-12-07 00:00","AK_DCP"
"924","CSKA2","CLEAR SKY",65.2542,-149.1828,258.42096,"2010-12-16 00:00","AK_DCP"
"925","CLRA2","CLEARY SUMMIT",65.0467,-147.4373,681.8631,"2010-12-16 00:00","AK_DCP"
"926","CLCA2","COAL CREEK",65.3139,-143.1322,254.64163,"2010-12-07 00:00","AK_DCP"
"927","HCCA2","Coffman Cove 8SSW - Hatchery Creek",55.90861,-132.93083,65.4978,"2017-08-07 00:00","AK_DCP"
"928","GRYA2","Coldfoot - Grayling",66.9566,-150.3889,456,"2012-04-02 00:00","AK_DCP"
"929","JIMA2","Coldfoot - Jim River Ice",66.7939,-150.7317,291,"2012-04-01 00:00","AK_DCP"
"930","COFA2","COLDFOOT SNOTEL",67.25333,-150.183,317,"2011-05-20 00:00","AK_DCP"
"931","CLMA2","COLUMBIA GLACIER",61.238,-146.8783,917.1222,"2010-12-16 00:00","AK_DCP"
"932","CRUA2","Colville River  AT Colville River near Umiat",69.3764,-152.0944,78.18553,"2010-12-07 00:00","AK_DCP"
"933","CONA2","CONTACT CREEK",58.2075,-155.9192,200.6501,"2010-12-07 00:00","AK_DCP"
"934","COCA2","COOPER CREEK 2 W Cooper Creek at Mouth nr Cooper Landing",60.4839,-149.8803,130,"2010-12-07 00:00","AK_DCP"
"935","CORA2","COOPER LAKE SNOTEL",60.39027,-149.6936,365.8,"2011-10-24 00:00","AK_DCP"
"936","STWA2","Cooper Landing 11ENE - Seward Highway",60.547,-149.5349,916,"2021-09-30 00:00","AK_DCP"
"937","QCKA2","Cooper Landing 4E - Quartz Creek",60.4804,-149.7208,136,"2021-02-28 00:00","AK_DCP"
"938","JCCA2","Cooper Landing - Jean Creek",60.83972,-150.29083,82,"2021-08-13 00:00","AK_DCP"
"939","JNLA2","Cooper Landing - Jean Lake Ice",60.5122,-150.1769,121,"2012-04-19 00:00","AK_DCP"
"940","MDBA2","COPPER RIVER 36 NE Copper River nr Million Dollar Bridge",60.6717,-144.7447,37.674877,"2010-12-07 00:00","AK_DCP"
"941","CCTA2","COPPER RIVER 42 SW Copper River at Chitina",61.5258,-144.4119,145,"2010-12-16 00:00","AK_DCP"
"942","CSGA2","Cordova 11ENE - Scott Glacier",60.6835,-145.136,1129,"2022-09-09 00:00","AK_DCP"
"943","KDVA2","Cordova 14SE - USCRN",60.47306,-145.35417,49,"2017-08-14 00:00","AK_DCP"
"944","OSNA2","Cordova 20NW - WF Olsen Bay Creek",60.76139,-146.17222,36,"2021-07-02 00:00","AK_DCP"
"945","PWRA2","Cordova 6NE - Power Creek",60.5887,-145.6046,253,"2021-09-30 00:00","AK_DCP"
"946","CBHA2","CORDOVA BOAT HARBOR",60.5419,-145.7664,0,"2010-12-16 00:00","AK_DCP"
"947","EYLA2","Cordova - Eyak Lake",60.5514,-145.6914,13.605179,"2011-10-25 00:00","AK_DCP"
"948","SEIA2","Cordova - Seal Island",60.4266,-147.403,1,"2014-11-26 00:00","AK_DCP"
"949","COTA2","Cottonwood Creek",65.3458,-155.9361,401.5029,"2011-05-13 00:00","AK_DCP"
"950","CTLA2","Cottonwood Lake Ice",61.6,-149.3167,104.93713,"2012-02-02 00:00","AK_DCP"
"951","ELLA2","Council - Ella Creek",65.2714,-163.8114,610,"2013-09-06 00:00","AK_DCP"
"952","COVA2","COVILLE",58.7972,-155.5706,404.46774,"2010-12-07 00:00","AK_DCP"
"953","CRGA2","Craig",55.4772,-133.1472,9.407923,"2012-06-15 00:00","AK_DCP"
"954","CPBA2","CROWLEY DOCK CAPTAINS BAY",53.8522,-166.5728,0.0001896,"2010-12-16 00:00","AK_DCP"
"955","DCKA2","DAHL CREEK 3 N Dahl Creek nr Kobuk",66.9461,-156.9089,70,"2010-12-07 00:00","AK_DCP"
"956","QRZA2","DAHL/QUARTZ CREEK N OF NOME",65.3653,-164.83,130.72774,"2010-12-07 00:00","AK_DCP"
"957","DCSA2","DAVIES CREEK SNOTEL",58.7,-134.86,629.4,"2015-11-13 00:00","AK_DCP"
"958","DDHA2","Deadhorse",70.1616,-148.4648,15,"2014-06-30 00:00","AK_DCP"
"959","FBLA2","Deadhorse 22SW - Franklin Bluffs",69.8922,-148.768,69,"2021-09-30 00:00","AK_DCP"
"960","DRTA2","Deering 1NNW - Tide",66.0972,-162.7405,2,"2022-10-10 00:00","AK_DCP"
"961","BOLA2","Delta Junction 12SSW - Bolio Lake",63.8868,-145.8465,423,"2022-11-18 00:00","AK_DCP"
"962","PANA2","Delta Junction 16SE - Panoramic",63.8885,-145.3239,392,"2022-11-18 00:00","AK_DCP"
"963","TEXA2","Delta Junction 16SSW - Texas Range",63.8391,-145.9143,488,"2022-11-18 00:00","AK_DCP"
"964","OPTA2","Delta Junction 16W - OP26",64.022,-146.25,468,"2022-11-18 00:00","AK_DCP"
"965","AFTA2","Delta Junction 17SSW - Ft Greely",63.787,-145.8636,906,"2022-11-18 00:00","AK_DCP"
"966","TCOA2","Delta Junction 17SSW - Texas Conda",63.8161,-145.8787,593,"2022-11-18 00:00","AK_DCP"
"967","OPSA2","Delta Junction 18SSW - OP10A",63.8023,-145.9417,503,"2022-11-18 00:00","AK_DCP"
"968","WSHA2","Delta Junction 19SSW - Washington Range",63.7894,-145.953,477,"2022-11-18 00:00","AK_DCP"
"969","OPOA2","Delta Junction 20SSW - OP12",63.7676,-145.95,508,"2022-11-18 00:00","AK_DCP"
"970","GRLA2","Delta Junction 26SE - Gerstle",63.8234,-145.0067,435,"2022-11-18 00:00","AK_DCP"
"971","SGNA2","Delta Junction 49SW",63.5307,-146.888,1429,"2021-09-30 00:00","AK_DCP"
"972","MGTA2","Delta Junction 4S - Main Gate",63.9727,-145.7376,405,"2022-11-18 00:00","AK_DCP"
"973","MAPA2","Delta Junction 5S - Main Post",63.9739,-145.7022,398,"2022-11-18 00:00","AK_DCP"
"974","GEOA2","Delta Junction 6S - Georgia",63.9694,-145.7673,375,"2022-11-18 00:00","AK_DCP"
"975","BAXA2","Delta Junction 7SE - Ft Greely",63.9444,-145.5972,417,"2022-11-18 00:00","AK_DCP"
"976","SFDA2","Delta Junction 7S - Snowfield",63.9339,-145.7254,436,"2022-11-18 00:00","AK_DCP"
"977","NTTA2","Delta Junction 8S - North Test",63.9361,-145.7452,443,"2022-11-18 00:00","AK_DCP"
"978","OPFA2","Delta Junction 8SSW - OP5",63.9228,-145.83,504,"2022-11-18 00:00","AK_DCP"
"979","MILA2","Delta Junction - Miller Creek",63.3566,-145.725,792,"2014-12-16 00:00","AK_DCP"
"980","BCHA2","Delta Junction - Rich Hwy",64.3142,-146.6863,264,"2010-12-16 00:00","AK_DCP"
"981","TFTA2","Delta Junction - Tenderfoot",64.2836,-146.2815,424.18124,"2013-02-01 00:00","AK_DCP"
"982","DELA2","Delta River  AT Delta River",63.2031,-145.8142,853,"2012-06-06 00:00","AK_DCP"
"983","WRRA2","Delta - Wills Range RAWS",63.9666,-145.7626,375,"2023-03-14 00:00","AK_DCP"
"984","DNLA2","Denali 27N",63.45194,-150.87472,620.4455,"2015-08-19 00:00","AK_DCP"
"985","ABCA2","Denali - Sustina River",63.10389,-147.51583,761,"2012-05-30 00:00","AK_DCP"
"986","DVLA2","Devil Mountain RAWS",66.27556,-164.53056,26,"2012-06-06 00:00","AK_DCP"
"987","DBHA2","Dillingham",59.0374,-158.462,0.6214864,"2021-06-28 00:00","AK_DCP"
"988","ALQA2","Dillingham 18NNW",59.28389,-158.61444,23.55348,"2019-10-24 00:00","AK_DCP"
"989","DOYA2","Donnelly Raws",63.84083,-145.73083,529.3255,"2011-04-26 00:00","AK_DCP"
"990","JECA2","Douglas - Eaglecrest",58.2667,-134.5083,578,"2023-03-17 00:00","AK_DCP"
"991","ETBA2","Douglas - Eaglecrest",58.27,-134.51,480.0359,"2015-03-04 00:00","AK_DCP"
"992","DKLA2","DUNKLE HILLS",63.2675,-149.5392,823.74976,"2010-12-07 00:00","AK_DCP"
"993","DUTA2","Dutch Harbour Spit",53.9042,-166.5097,-15,"2010-12-16 00:00","AK_DCP"
"994","DWSA2","Dyea NPS",59.51194,-135.34694,19.532093,"2016-07-07 00:00","AK_DCP"
"995","EGYA2","EAGLE",64.7683,-141.1358,311.23334,"2010-12-07 00:00","AK_DCP"
"996","ECTA2","EAGLECREST TOP",58.2666,-134.5013,503.30795,"2010-12-16 00:00","AK_DCP"
"997","ERBA2","EAGLE RIVER 1 S Eagle River at Glenn Hwy Bridge",61.3108,-149.5744,68,"2012-05-01 00:00","AK_DCP"
"998","ERLA2","EAGLE RIVER  AT EAGLE RIVER AT FORT RICHARDSON",61.3109,-149.6878,31,"2015-06-01 00:00","AK_DCP"
"999","ERTA2","EAGLE RIVER GAKONA CIRCLE",61.3193,-149.5435,172.68416,"2011-05-09 00:00","AK_DCP"
"1000","GWSA2","Eagle River - Glenn Hwy",61.2803,-149.6236,157,"2010-12-16 00:00","AK_DCP"
"1001","JBRA2","Eagle River - JBER",61.3819,-149.6501,45.288742,"2012-10-02 00:00","AK_DCP"
"1002","ERJA2","EAGLE RIVER NEAR JUNEAU",58.5803,-134.7297,170.2988,"2010-12-13 00:00","AK_DCP"
"1003","EAGA2","EAGLE SUMMIT SNOTEL",65.48588,-145.41212,1112.5,"2011-05-20 00:00","AK_DCP"
"1004","EQPA2","EARTHQUAKE PARK",61.1959,-149.962,16.242304,"2010-12-16 00:00","AK_DCP"
"1005","EFEA2","East Fork Eklutna River",61.31435,-148.97228,363,"2021-09-30 00:00","AK_DCP"
"1006","TEDA2","East Fork Toklat River at Denali Park Road",63.5586,-149.7946,974.1813,"2021-09-30 00:00","AK_DCP"
"1007","ENLA2","EAST NORTHERN LIGHTS",61.1938,-149.7525,68.85635,"2010-12-16 00:00","AK_DCP"
"1008","EGGA2","Egegik River  AT Egegik River near King Salmon",58.0397,-156.845,6.5846024,"2014-10-09 00:00","AK_DCP"
"1009","EVCA2","EIELSON VISITORS CENTER",63.4258,-150.3117,992.91626,"2010-12-07 00:00","AK_DCP"
"1010","GKRA2","Eklutna - Glenn Hwy",61.4939,-149.2425,5,"2010-12-16 00:00","AK_DCP"
"1011","EKLA2","EKLUTNA LAKE 5 ESE Eklutna Lake nr Eklutna",61.4167,-149.1167,603,"2010-12-07 00:00","AK_DCP"
"1012","KWKA2","Ekwok 13WNW - Kokwok River",59.415,-157.80417,31.008808,"2017-01-08 00:00","AK_DCP"
"1013","NSHA2","Ekwok - Nughagak River",59.3492,-157.4731,26.161213,"2017-09-20 00:00","AK_DCP"
"1014","CSPA2","Elfin Cove 11W - Cape Spencer",58.1989,-136.6386,-6.9291587,"2021-07-23 00:00","AK_DCP"
"1015","ECHA2","EMMA CREEK NEAR HEALY",64.0117,-148.7253,580.20386,"2010-12-07 00:00","AK_DCP"
"1016","EMYA2","Emmonak",64.73611,-156.90083,40,"2021-06-29 00:00","AK_DCP"
"1017","ESIA2","ESTHER ISLAND SNOTEL",60.789,-148.0857,15.2,"2011-05-20 00:00","AK_DCP"
"1018","NELA2","Eureka Roadhouse - Little Nelchina",62.0833,-146.9833,846.52356,"2011-10-24 00:00","AK_DCP"
"1019","EXGA2","EXIT GLACIER SNOTEL",60.19033,-149.62117,121.9,"2011-10-24 00:00","AK_DCP"
"1020","EXTA2","EXIT GLACIER STREAM 8 NW Exit Glacier nr Visitors Center",60.1833,-149.6,157.90564,"2012-05-26 00:00","AK_DCP"
"1021","EYRA2","Eyak River  AT Eyak River",60.5214,-145.6353,9,"2011-05-22 00:00","AK_DCP"
"1022","EYAA2","Eyak River  AT Eyak River at Copper River Hwy",60.5311,-145.6444,19.990988,"2010-12-07 00:00","AK_DCP"
"1023","GSCA2","Fairbanks",64.89389,-147.87583,180,"2010-12-16 00:00","AK_DCP"
"1024","BCFA2","Fairbanks - Beaver Creek",65.40333,-147.83444,473,"2021-10-20 00:00","AK_DCP"
"1025","SCFA2","Fairbanks - Creamers Field",64.8653,-147.7361,134,"2021-09-30 00:00","AK_DCP"
"1026","FNEA2","FAIRBANKS CRN",64.9735,-147.51,348.12164,"2010-12-07 00:00","AK_DCP"
"1027","FOFA2","FAIRBANKS F.O. SNOTEL",64.85,-147.8,137.2,"2011-10-24 00:00","AK_DCP"
"1028","LCRA2","Fairbanks Snotel",65.1167,-146.7,523.24115,"2011-05-20 00:00","AK_DCP"
"1029","WICA2","Fairbanks - Wickersham Dome",65.1785,-148.0732,610,"2012-08-08 00:00","AK_DCP"
"1030","FWLA2","FAREWELL BURN",62.7233,-154.0767,221.89568,"2010-12-07 00:00","AK_DCP"
"1031","FLLA2","Fawn Lake",55.35083,-131.62111,122.45396,"2021-09-07 00:00","AK_DCP"
"1032","FLDA2","FIELDING LAKE SNOTEL",63.20267,-145.6305,914.4,"2014-11-26 00:00","AK_DCP"
"1033","FCKA2","FISH CREEK 20 E Fish Creek nr Ketchikan",55.3919,-131.1939,29,"2010-12-07 00:00","AK_DCP"
"1034","NUIA2","FISH CREEK 21 W Fish Creek Mile 32 near Nuiqsut",70.2703,-151.8725,6.3757586,"2010-12-07 00:00","AK_DCP"
"1035","FCCA2","Fish Creek  AT Fish Creek near Chatanika",65.0097,-147.1983,308.2591,"2010-12-07 00:00","AK_DCP"
"1036","MCWA2","FLAT RAWS",62.8303,-156.61,332.91946,"2010-12-07 00:00","AK_DCP"
"1037","FLOA2","Flower Mountain",59.4,-136.2833,701.56476,"2017-09-27 00:00","AK_DCP"
"1038","BKCA2","Fort Greely 34S - Black Rapids Chalet",63.5209,-145.841,725,"2022-11-18 00:00","AK_DCP"
"1039","FRBA2","FORT WAINWRIGHT",64.8367,-147.615,136,"2010-12-07 00:00","AK_DCP"
"1040","SRGA2","FORT WAINWRIGHT SMALL ARMS RANGE",64.8,-147.6167,137,"2010-12-07 00:00","AK_DCP"
"1041","FMRA2","Fortymile River at Taylor Hwy 24 NE Fortymile River at Taylor Hw",64.3091,-141.4083,398.81726,"2010-12-07 00:00","AK_DCP"
"1042","FYRA2","FORT YUKON RAWS",66.5703,-145.2458,130.43643,"2010-12-07 00:00","AK_DCP"
"1043","FYNA2","FORT YUKON SNOTEL",66.5705,-145.24553,131.1,"2011-05-20 00:00","AK_DCP"
"1044","FPKA2","FOURPEAKED RAWS",58.7057,-153.5179,336.94452,"2010-12-07 00:00","AK_DCP"
"1045","GSNA2","Gakona 8NNW - Gulkana River",62.4096,-145.3751,557.38165,"2018-11-08 00:00","AK_DCP"
"1046","JCTA2","GAKONA JUNCTION",62.293,-145.335,504.22095,"2010-12-16 00:00","AK_DCP"
"1047","GAKA2","GAKONA RIVER 1 E Gakona River nr Gakona",63.30833,-146.16944,1065,"2011-05-02 00:00","AK_DCP"
"1048","GANA2","Galena 6ESE - SNOWTEL",64.7,-156.7167,60,"2018-11-20 00:00","AK_DCP"
"1049","HUSA2","Galena - Koyukuk River",65.4192,-156.2383,113,"2012-05-12 00:00","AK_DCP"
"1050","PMNA2","GALENA @ POORMAN",64.105,-155.5583,152.2426,"2010-12-20 00:00","AK_DCP"
"1051","GGLA2","GATES GLACIER",61.61,-143,1162.0267,"2010-12-07 00:00","AK_DCP"
"1052","GECA2","GEORGE CREEK RAWS",63.8375,-144.3503,461.5881,"2010-12-07 00:00","AK_DCP"
"1053","AYSA2","Girdwood 3E - Alyeska",60.956,-149.063,1015,"2021-09-30 00:00","AK_DCP"
"1054","AYXA2","Girdwood 3E - Maxs",60.949,-149.085,898,"2021-09-30 00:00","AK_DCP"
"1055","PGPA2","Girdwood 9W - Penguin Peak",60.9652,-149.3754,1181.4847,"2021-09-30 00:00","AK_DCP"
"1056","AYMA2","Girdwood - Alyeska Weather Mid",60.9622,-149.0897,390,"2010-05-20 00:00","AK_DCP"
"1057","GDWA2","GIRDWOOD FIRE STATION",60.9614,-149.135,30.983492,"2010-12-07 00:00","AK_DCP"
"1058","GIRA2","Girdwood - Seward Highway",60.939,-149.1679,12,"2022-10-21 00:00","AK_DCP"
"1059","SRPA2","Girdwood - Seward Hwy",60.8044,-149.1849,305,"2012-07-07 00:00","AK_DCP"
"1060","AQYA2","Girdwood South",60.9492,-149.1572,17.696781,"2011-05-20 00:00","AK_DCP"
"1061","GBIA2","GLACIER BAY INNER DOCK",58.4564,-135.8697,5.715539,"2010-12-07 00:00","AK_DCP"
"1062","GLIA2","Glacier Bay - Lone Island RAWS",58.72194,-136.295,-60,"2018-05-03 00:00","AK_DCP"
"1063","GCGA2","GLACIER CREEK 1 SE Glacier Creek at Girdwood",60.9333,-149.1667,6,"2011-10-25 00:00","AK_DCP"
"1064","GFKA2","GLACIER FORK KNIK RIVER NEAR PALMER",61.4186,-148.4439,267.55838,"2010-12-07 00:00","AK_DCP"
"1065","EGNA2","Glacier Highway at Egan Drive Juneau",58.3297,-134.4724,7.373191,"2011-05-20 00:00","AK_DCP"
"1066","COHA2","GLACIER HWY AT COHEN DRIVE",58.4639,-134.7775,59.8612,"2010-12-16 00:00","AK_DCP"
"1067","GCOA2","Glacier River  AT Glacier River Tributary near Cordova",60.5333,-145.3786,86.61445,"2011-07-14 00:00","AK_DCP"
"1068","GNNA2","Glennallen 64N",63.0291,-145.501,822,"2013-08-14 00:00","AK_DCP"
"1069","CTOA2","Glennallen - Christochina River",62.605,-144.6333,572.4583,"2012-05-27 00:00","AK_DCP"
"1070","GHYA2","Glennallen - Glenn Hwy",62.1063,-145.8657,613,"2010-12-16 00:00","AK_DCP"
"1071","GERA2","GLENN HWY AT N END EAGLE RIVER BRIDGE",61.3117,-149.5747,69.77347,"2010-12-16 00:00","AK_DCP"
"1072","TBFA2","GLENN HWY AT THUNDERBIRD FALLS",61.4387,-149.3957,80.23823,"2010-12-16 00:00","AK_DCP"
"1073","GOBA2","GOBBLERS KNOB SNOTEL",66.745,-150.6675,618.7,"2011-05-20 00:00","AK_DCP"
"1074","GLSA2","Goldstream Creek  AT Goldstream Creek near Livengood",65.5758,-148.3886,355,"2010-12-07 00:00","AK_DCP"
"1075","GLHA2","GOLDSTREAM HILLS",64.9236,-147.8875,289.942,"2010-12-16 00:00","AK_DCP"
"1076","GLTA2","Golovin Tide Gage  AT Golovin Tide Gage",64.5399,-163.0341,-4,"2015-07-26 00:00","AK_DCP"
"1077","GDPA2","GOODPASTER RIVER",64.2381,-145.2669,462.50507,"2010-12-07 00:00","AK_DCP"
"1078","GBDA2","GOODPASTER RIVER 36 NE Goodpaster River nr Big Delta",64.4506,-144.9422,413,"2010-12-07 00:00","AK_DCP"
"1079","GOOA2","Goose Lake",61.1947,-149.8194,42.799294,"2011-11-28 00:00","AK_DCP"
"1080","GOVA2","Government Creek  AT Government Creek near Ketchikan",55.3481,-131.6983,11.384275,"2010-12-07 00:00","AK_DCP"
"1081","GRVA2","GRANDVIEW SNOTEL",60.60832,-149.06313,335.3,"2011-05-20 00:00","AK_DCP"
"1082","GRAA2","GRANITE CREEK",60.7275,-149.2869,209.03226,"2010-12-07 00:00","AK_DCP"
"1083","GCKA2","GRANITE CRK SNOTEL",63.94382,-145.39993,378,"2011-05-20 00:00","AK_DCP"
"1084","GRFA2","Graphite Lake",67.0333,-143.2833,275.04456,"2011-05-03 00:00","AK_DCP"
"1085","GRZA2","Grazelka Range Raws",61.283,-149.6166,139.94931,"2011-04-18 00:00","AK_DCP"
"1086","GROA2","GROUSE CREEK 7 NNE Grouse Creek nr Seward",60.1989,-149.3736,93,"2010-12-07 00:00","AK_DCP"
"1087","GCRA2","GROUSE CREEK DIVIDE SNOTEL",60.25965,-149.34228,213.4,"2011-05-20 00:00","AK_DCP"
"1088","GKGA2","GULKANA GLACIER NEAR PAXSON",63.2594,-145.4053,1499.9706,"2010-12-07 00:00","AK_DCP"
"1089","GULA2","Gulkana - Gulkana River",62.2667,-145.3833,428.62054,"2011-10-24 00:00","AK_DCP"
"1090","GRSA2","GULKANA RIVER 1 SW Gulkana River at Sourdough",62.5208,-145.5308,573.1416,"2010-12-07 00:00","AK_DCP"
"1091","GPOA2","GULKANA RIVER  AT Paxson Lake Outlet",62.6917,-145.6167,777.22107,"2010-12-07 00:00","AK_DCP"
"1092","GTSA2","Gustavus 2NE",58.4294,-135.6915,10.221516,"2012-07-24 00:00","AK_DCP"
"1093","BLTA2","Gustavus - Bartlett Cove",58.45517,-135.88888,1.3535993,"2010-12-07 00:00","AK_DCP"
"1094","GNUA2","Gustvus - Nunatak Upper RAWS",58.98389,-136.1,258.37405,"2016-08-01 00:00","AK_DCP"
"1095","HKIA2","HAENKE ISLAND",59.972,-139.546,1.9672045,"2010-12-16 00:00","AK_DCP"
"1096","HADA2","HAIDA/KETCHIKAN",55.35,-132.7,480.1235,"2010-12-07 00:00","AK_DCP"
"1097","TKHA2","Haines 17NW - Takshanuk Mountains",59.3985,-135.813,1373.7523,"2021-09-30 00:00","AK_DCP"
"1098","RRWA2","Haines 2NW - Ripinsky Ridge",59.2596,-135.4942,778.5756,"2021-09-30 00:00","AK_DCP"
"1099","MRWA2","Haines 2SE - Mt Riley",59.2156,-135.4116,343.88937,"2021-09-30 00:00","AK_DCP"
"1100","GCVA2","Haines 34NW - Glaicer Creek Valley",59.3978,-136.3429,440.81125,"2021-09-30 00:00","AK_DCP"
