STATION_ID,STATION,BEGIN_DATE,END_DATE,STATE,COUNTRY,LATITUDE,LONGITUDE,ELEVATION_(M)
WBAN:00184,"ABBEVILLE CHRIS CRUSTA MEMORIAL AIRPORT, LA US",2008-12-31,2023-06-14,Louisiana,United States,29.976,-92.084,15.2
WBAN:54933,"ABERDEEN 35 WNW, SD US",2007-06-25,2023-06-14,South Dakota,United States,45.7115,-99.1296,596.5
WBAN:13701,"ABERDEEN PHILLIPS FIELD, MD US",2005-02-28,2023-06-13,Maryland,United States,39.4716,-76.1697,17.4
WBAN:14929,"ABERDEEN REGIONAL AIRPORT, SD US",1947-12-31,2023-06-14,South Dakota,United States,45.44358,-98.41384,395.6
WBAN:13910,"ABILENE DYESS AFB, TX US",1943-11-30,2023-06-14,Texas,United States,32.43333,-99.85,545
WBAN:13962,"ABILENE REGIONAL AIRPORT, TX US",1946-07-31,2023-06-14,Texas,United States,32.41063,-99.68208,544.8
WBAN:53818,"ABINGDON VIRGINIA HIGHLANDS AIRPORT, VA US",2004-12-31,2023-06-14,Virginia,United States,36.68333,-82.03333,630.9
WBAN:53930,"ADA MUNICIPAL AIRPORT, OK US",2005-01-04,2023-06-14,Oklahoma,United States,34.80417,-96.67111,309.7
WBAN:04847,"ADRIAN LENAWEE CO AIRPORT, MI US",2004-12-31,2023-06-14,Michigan,United States,41.86784,-84.07946,244.1
WBAN:54779,"AEROFLEX ANDOVER AIRPORT, NJ US",2004-12-31,2023-06-14,New Jersey,United States,41.00928,-74.73633,176.8
WBAN:93796,"AHOSKIE TRI CO AIRPORT, NC US",2004-12-31,2023-06-14,North Carolina,United States,36.2975,-77.17083,20.7
WBAN:00193,"AIKEN MUNICIPAL AIRPORT, SC US",2009-01-04,2023-06-14,South Carolina,United States,33.65,-81.683,161.2
WBAN:94975,"AINSWORTH MUNICIPAL AIRPORT, NE US",2004-12-31,2023-06-14,Nebraska,United States,42.57694,-100.00056,787.6
WBAN:94999,"AITKIN MUNICIPAL AIRPORT, MN US",2004-12-31,2023-06-14,Minnesota,United States,46.5475,-93.67667,367
WBAN:53168,"AJO 29 S, AZ US",2010-09-26,2014-05-31,Arizona,United States,31.9497,-112.8013,506.3
WBAN:94092,"AKRON A 4 E, CO US",2009-06-14,2014-05-31,Colorado,United States,40.1551,-103.1417,1384.4
WBAN:14895,"AKRON CANTON AIRPORT, OH US",1948-06-30,2023-06-14,Ohio,United States,40.91811,-81.44342,368.8
WBAN:14813,"AKRON FULTON INTERNATIONAL AIRPORT, OH US",1947-12-31,2023-06-14,Ohio,United States,41.03732,-81.46341,318.1
WBAN:24015,"AKRON WASHINGTON CO AIRPORT, CO US",1947-12-31,2023-06-14,Colorado,United States,40.174306,-103.214588,1428
WBAN:53864,"ALABASTER SHELBY CO AIRPORT ASOS, AL US",2001-12-31,2023-06-14,Alabama,United States,33.17835,-86.78178,172.5
WBAN:23239,"ALAMEDA NAS, CA US",1945-02-28,1997-01-31,California,United States,37.78333,-122.31667,9.1
WBAN:00456,ALAMINOS CANYON,2011-08-23,2023-01-28,null,null,26.93333,-94.68333,25.3
WBAN:93097,"ALAMOGORDO WHITE SANDS REGIONAL AIRPORT, NM US",2004-12-31,2023-06-14,New Mexico,United States,32.83972,-105.99056,1280.2
WBAN:23061,"ALAMOSA BERGMAN FIELD, CO US",1947-12-31,2023-06-14,Colorado,United States,37.43931,-105.8618,2297.4
WBAN:14735,"ALBANY INTERNATIONAL AIRPORT, NY US",1944-12-31,2023-06-14,New York,United States,42.74722,-73.79913,85.4
WBAN:13869,"ALBANY SW GEORGIA REGIONAL AIRPORT, GA US",1947-12-31,2023-06-14,Georgia,United States,31.53642,-84.1958,58.2
WBAN:94968,"ALBERT LEA MUNICIPAL AIRPORT, MN US",2004-12-31,2023-06-14,Minnesota,United States,43.68333,-93.36667,383.7
WBAN:63880,"ALBERTVILLE MUNICIPAL AIRPORT, AL US",2006-04-02,2023-06-14,Alabama,United States,34.22917,-86.25583,314.6
WBAN:54921,"ALBION MUNICIPAL AIRPORT, NE US",2005-12-31,2023-06-14,Nebraska,United States,41.73,-98.05444,548.3
WBAN:03034,"ALBUQUERQUE DOUBLE EAGLE II AIRPORT, NM US",2004-12-31,2023-06-14,New Mexico,United States,35.145,-106.795,1779.1
WBAN:23050,"ALBUQUERQUE INTERNATIONAL AIRPORT, NM US",1941-06-30,2023-06-14,New Mexico,United States,35.04189,-106.61545,1618.4
WBAN:63833,"ALEXANDER CITY THOMAS C RUSSELL FIELD AIRPORT, AL US",2004-12-31,2023-06-14,Alabama,United States,32.91472,-85.96278,209.1
WBAN:00258,"ALEXANDER MUNICIPAL AIRPORT, NM US",2014-07-30,2018-11-06,New Mexico,United States,34.645,-106.834,1583.1
WBAN:14910,"ALEXANDRIA CHANDLER FIELD, MN US",1948-11-30,2023-06-14,Minnesota,United States,45.86801,-95.39399,432.8
WBAN:13935,"ALEXANDRIA ESLER FIELD, LA US",1941-06-30,2023-06-14,Louisiana,United States,31.3963,-92.28278,26.9
WBAN:93915,"ALEXANDRIA INTERNATIONAL AIRPORT, LA US",2001-09-30,2023-06-14,Louisiana,United States,31.33464,-92.55849,25
WBAN:04904,"ALGONA MUNICIPAL AIRPORT, IA US",2004-12-31,2023-06-14,Iowa,United States,43.07778,-94.27194,371.6
WBAN:12932,"ALICE INTERNATIONAL AIRPORT, TX US",1946-07-31,2023-06-14,Texas,United States,27.74131,-98.02507,52
WBAN:94184,"ALLEN H TIGERT AIRPORT, ID US",2005-02-23,2012-09-27,Idaho,United States,42.65,-111.58333,1779.7
WBAN:14737,"ALLENTOWN LEHIGH VALLEY INTERNATIONAL AIRPORT, PA US",1947-12-31,2023-06-14,Pennsylvania,United States,40.64984,-75.44773,117.4
WBAN:00379,"ALLENTOWN QUEEN CITY MUNICIPAL AIRPORT, PA US",2014-07-30,2023-06-14,Pennsylvania,United States,40.567,-75.483,122.2
WBAN:24044,"ALLIANCE MUNICIPAL AIRPORT ASOS, NE US",2004-12-31,2023-06-14,Nebraska,United States,42.05732,-102.80169,1196.3
WBAN:13870,"ALMA BACON CO AIRPORT, GA US",1948-12-31,2023-06-14,Georgia,United States,31.54006,-82.50735,58.2
WBAN:54816,"ALMA GRATIOT COMMUNITY AIRPORT, MI US",2005-08-16,2023-06-14,Michigan,United States,43.32222,-84.68806,227.7
WBAN:94849,"ALPENA CO REGIONAL AIRPORT, MI US",1959-08-31,2023-06-14,Michigan,United States,45.0716,-83.56451,208.3
WBAN:03049,"ALPINE CASPARIS MUNICIPAL AIRPORT, TX US",2004-12-31,2023-06-14,Texas,United States,30.38333,-103.68333,1375.6
WBAN:03958,"ALTON ST LOUIS REGIONAL AIRPORT, IL US",2005-02-24,2023-06-14,Illinois,United States,38.88333,-90.05,165.5
WBAN:14736,"ALTOONA BLAIR CO AIRPORT, PA US",1949-01-31,2023-06-14,Pennsylvania,United States,40.29993,-78.3168,446.6
WBAN:94299,"ALTURAS MUNICIPAL AIRPORT, CA US",2004-12-31,2023-06-14,California,United States,41.48362,-120.5615,1335.9
WBAN:13902,"ALTUS AFB, OK US",1943-01-31,2023-06-14,Oklahoma,United States,34.65,-99.26667,421.2
WBAN:53933,"ALVA REGIONAL AIRPORT, OK US",2004-12-31,2023-04-28,Oklahoma,United States,36.77306,-98.66972,449.3
WBAN:53006,"AMADO 23 W, AZ US",2010-09-25,2014-05-31,Arizona,United States,31.6922,-111.4481,1005.8
WBAN:23047,"AMARILLO AIRPORT, TX US",1943-02-28,2023-06-14,Texas,United States,35.22027,-101.71733,1099.3
WBAN:94989,"AMES MUNICIPAL AIRPORT, IA US",2004-12-31,2023-06-14,Iowa,United States,41.99045,-93.61852,281.5
WBAN:53843,"ANDALUSIA OPP AIRPORT, AL US",2005-06-20,2023-06-14,Alabama,United States,31.30614,-86.39018,97.5
WBAN:04828,"ANDERSON MUNICIPAL AIRPORT, IN US",2004-12-31,2023-06-14,Indiana,United States,40.11667,-85.61667,274.3
WBAN:93846,"ANDERSON REGIONAL AIRPORT, SC US",1948-12-31,2023-06-14,South Carolina,United States,34.498,-82.70924,233.7
WBAN:00349,"ANDREWS CO AIRPORT, TX US",2014-07-30,2023-06-14,Texas,United States,32.331,-102.53,967.1
WBAN:63811,"ANDREWS MURPHY AIRPORT, NC US",2004-12-31,2023-06-14,North Carolina,United States,35.195,-83.86528,516.9
WBAN:00137,"ANGEL FIRE AIRPORT, NM US",2008-12-31,2023-06-14,New Mexico,United States,36.422,-105.29,2554.2
WBAN:12976,"ANGLETON LAKE JACKSON BRAZORIA CO AIRPORT, TX US",2004-12-31,2023-06-14,Texas,United States,29.11536,-95.46323,7.7
WBAN:04938,"ANKENY REGIONAL AIRPORT, IA US",2004-12-31,2023-06-14,Iowa,United States,41.69111,-93.56611,277.4
WBAN:94889,"ANN ARBOR MUNICIPAL AIRPORT, MI US",2004-12-31,2023-06-14,Michigan,United States,42.22393,-83.73983,250.6
WBAN:13752,"ANNAPOLIS UNITED STATES NAVAL ACADEMY ASOS, MD US",1945-02-28,2023-06-14,Maryland,United States,38.9913,-76.4891,1.8
WBAN:13871,"ANNISTON METROPOLITAN AIRPORT, AL US",1947-12-31,2023-06-14,Alabama,United States,33.59043,-85.84788,181.8
WBAN:00383,"ANSON CO AIRPORT JEFF CLOUD FIELD, NC US",2007-05-20,2023-06-14,North Carolina,United States,35.017,-80.083,91.1
WBAN:04864,"ANTIGO LANGLADE CO AIRPORT, WI US",2004-12-31,2023-06-14,Wisconsin,United States,45.15417,-89.11056,463.9
WBAN:12832,"APALACHICOLA AIRPORT, FL US",1944-12-31,2023-06-14,Florida,United States,29.72681,-85.02481,5.5
WBAN:54917,"APPLETON MUNICIPAL AIRPORT, MN US",2005-08-16,2023-06-14,Minnesota,United States,45.2275,-96.00722,310.9
WBAN:04825,"APPLETON OUTAGAMIE CO AIRPORT, WI US",2004-12-31,2023-06-14,Wisconsin,United States,44.26667,-88.51667,279.5
WBAN:24283,"ARCATA EUREKA AIRPORT, CA US",1949-11-30,2023-06-14,California,United States,40.97844,-124.10479,64.5
WBAN:04126,"ARCO 17 SW, ID US",2003-07-09,2023-06-14,Idaho,United States,43.4621,-113.556,1804.4
WBAN:53929,"ARDMORE DOWNTOWN AIRPORT, OK US",2004-12-31,2023-06-14,Oklahoma,United States,34.14694,-97.1225,257.3
WBAN:93940,"ARDMORE MUNICIPAL AIRPORT, OK US",2005-01-01,2023-06-14,Oklahoma,United States,34.3,-97.01667,221
WBAN:53907,"ARLINGTON MUNICIPAL AIRPORT, TX US",2004-12-31,2023-06-14,Texas,United States,32.65832,-97.09509,179.7
WBAN:04205,"ARLINGTON MUNICIPAL AIRPORT, WA US",2004-12-31,2023-06-14,Washington,United States,48.16056,-122.15889,41.8
WBAN:53002,"ARTESIA 2 WNW, NM US",2010-06-23,2014-05-31,New Mexico,United States,32.8546,-104.4569,1067.1
WBAN:03035,"ARTESIA MUNICIPAL AIRPORT, NM US",2004-12-31,2023-06-14,New Mexico,United States,32.8525,-104.4675,1079.3
WBAN:03709,"ASHEBORO MUNICIPAL AIRPORT, NC US",2004-12-31,2023-06-14,North Carolina,United States,35.65361,-79.895,205.1
WBAN:53878,"ASHEVILLE 13 S, NC US",2000-11-20,2023-06-14,North Carolina,United States,35.4185,-82.5567,641
WBAN:53877,"ASHEVILLE 8 SSW, NC US",2000-11-19,2023-06-14,North Carolina,United States,35.4945,-82.6142,655.6
WBAN:03812,"ASHEVILLE REGIONAL AIRPORT, NC US",1947-12-31,2023-06-14,North Carolina,United States,35.43178,-82.53787,645.6
WBAN:93775,"ASHLAND HANOVER CO MUNICIPAL AIRPORT, VA US",2004-12-31,2023-06-14,Virginia,United States,37.70926,-77.43484,61.5
WBAN:94929,"ASHLAND KENNEDY MEMORIAL AIRPORT, WI US",2004-12-31,2023-06-14,Wisconsin,United States,46.54676,-90.91845,250.2
WBAN:04857,"ASHTABULA CO AIRPORT, OH US",2004-12-31,2023-06-14,Ohio,United States,41.7794,-80.69683,278.3
WBAN:93073,"ASPEN PITKIN CO AIRPORT SARDY FIELD, CO US",2004-12-31,2023-06-14,Colorado,United States,39.22994,-106.87052,2339.9
WBAN:94224,"ASTORIA AIRPORT PORT OF, OR US",1949-03-31,2023-06-14,Oregon,United States,46.15694,-123.88326,3.4
WBAN:13873,"ATHENS BEN EPPS AIRPORT, GA US",1955-08-31,2023-06-14,Georgia,United States,33.94773,-83.32736,239
WBAN:00447,"ATHENS MUNICIPAL AIRPORT, TX US",2014-07-30,2021-08-26,Texas,United States,32.16384,-95.82835,135.3
WBAN:00142,"ATKINSON MUNICIPAL AIRPORT, KS US",2010-01-12,2023-06-14,Kansas,United States,37.45,-94.733,290.2
WBAN:53863,"ATLANTA DEKALB PEACHTREE AIRPORT, GA US",2004-12-31,2023-06-14,Georgia,United States,33.87835,-84.29802,298.4
WBAN:03888,"ATLANTA FULTON CO AIRPORT, GA US",2004-12-31,2023-06-14,Georgia,United States,33.77759,-84.52464,245
WBAN:13874,"ATLANTA HARTSFIELD JACKSON INTERNATIONAL AIRPORT, GA US",1944-12-31,2023-06-14,Georgia,United States,33.62972,-84.44224,308.2
WBAN:93730,"ATLANTIC CITY INTERNATIONAL AIRPORT, NJ US",1946-12-31,2023-06-14,New Jersey,United States,39.45203,-74.56701,17.8
WBAN:13724,"ATLANTIC CITY MARINA, NJ US",1947-12-31,1991-02-14,New Jersey,United States,39.37778,-74.42361,3
WBAN:14930,"ATLANTIC MUNICIPAL AIRPORT, IA US",2004-12-31,2023-06-14,Iowa,United States,41.40722,-95.04667,360.3
WBAN:00312,ATLANTIS OIL PLATFORM,2011-03-09,2023-06-14,null,null,27.2,-90.033,50.3
WBAN:53932,"ATOKA MUNICIPAL AIRPORT, OK US",2004-12-31,2021-05-27,Oklahoma,United States,34.39833,-96.14806,179.8
WBAN:03043,"ATWOOD RAWLINS CO AIRPORT, KS US",2020-10-14,2023-06-14,Kansas,United States,39.84,-101.04194,911.7
WBAN:94709,"AUBURN LEWISTON, ME US",2004-12-31,2023-06-14,Maine,United States,44.05,-70.28333,87.8
WBAN:23224,"AUBURN MUNICIPAL AIRPORT, CA US",2004-12-31,2023-06-14,California,United States,38.95472,-121.08194,466.6
WBAN:03892,"AUBURN OPELIKA AIRPORT, AL US",2004-12-31,2023-05-20,Alabama,United States,32.61611,-85.43333,236.5
WBAN:94998,"AUDUBON MUNICIPAL AIRPORT, IA US",2004-12-31,2023-06-14,Iowa,United States,41.7,-94.91667,393.8
WBAN:03820,"AUGUSTA BUSH FIELD AIRPORT, GA US",1947-12-31,2023-06-14,Georgia,United States,33.36517,-81.96353,40.9
WBAN:13837,"AUGUSTA DANIEL FIELD AIRPORT, GA US",2004-12-31,2023-06-14,Georgia,United States,33.4668,-82.03847,125.1
WBAN:14605,"AUGUSTA STATE AIRPORT, ME US",1948-12-31,2023-06-14,Maine,United States,44.3161,-69.79702,106.4
WBAN:23036,"AURORA BUCKLEY FIELD ANGB, CO US",1944-02-29,2023-06-14,Colorado,United States,39.71667,-104.75,1726.1
WBAN:04901,"AURORA MUNICIPAL AIRPORT, NE US",2004-12-31,2023-06-14,Nebraska,United States,40.89306,-97.99722,548.3
WBAN:94281,"AURORA STATE AIRPORT, OR US",2004-12-31,2023-06-14,Oregon,United States,45.24656,-122.77095,59.6
WBAN:23907,"AUSTIN 33 NW, TX US",2008-01-31,2023-06-14,Texas,United States,30.6222,-98.0846,414.8
WBAN:13904,"AUSTIN BERGSTROM INTERNATIONAL AIRPORT, TX US",1948-12-31,2023-06-14,Texas,United States,30.18311,-97.67989,146.5
WBAN:13958,"AUSTIN CAMP MABRY, TX US",1948-06-30,2023-06-14,Texas,United States,30.3208,-97.7604,204.2
WBAN:00230,"AUSTIN EXECUTIVE AIRPORT, TX US",2009-07-21,2023-06-10,Texas,United States,30.395,-97.567,188.1
WBAN:04902,"AUSTIN MUNICIPAL AIRPORT, MN US",2004-12-31,2023-06-14,Minnesota,United States,43.66472,-92.93333,375.8
WBAN:23191,"AVALON CATALINA AIRPORT, CA US",1943-06-11,2023-06-14,California,United States,33.40419,-118.41456,477
WBAN:03761,"AVONDALE 2 N, PA US",2006-06-01,2023-06-14,Pennsylvania,United States,39.8593,-75.7861,121.9
WBAN:53017,"AZTEC 43 E, NM US",2010-08-30,2014-05-31,New Mexico,United States,36.7499,-107.2189,2140.9
WBAN:54817,"BAD AXE HURON CO MEMORIAL AIRPORT, MI US",2004-12-31,2023-06-14,Michigan,United States,43.78028,-82.98556,233.5
WBAN:53882,"BAINBRIDGE DECATUR CO INDUSTRIAL AIR PARK AIRPORT, GA US",2004-12-31,2023-06-14,Georgia,United States,30.98333,-84.63333,43
WBAN:53138,"BAKER 5 W, NV US",2004-05-08,2023-06-14,Nevada,United States,39.0118,-114.209,2016.9
WBAN:24130,"BAKER CITY AIRPORT, OR US",1947-12-31,2023-06-14,Oregon,United States,44.84301,-117.80987,1025
WBAN:94055,"BAKER MUNICIPAL AIRPORT, MT US",2004-12-31,2023-06-14,Montana,United States,46.35205,-104.26134,902.9
WBAN:23155,"BAKERSFIELD AIRPORT, CA US",1941-09-30,2023-06-14,California,United States,35.43424,-119.05524,149.3
WBAN:00385,"BALD MOUNTAIN COTTONWOOD PASS, CO US",2005-06-10,2023-06-14,Colorado,United States,38.783,-106.217,2995.3
WBAN:13777,"BALTIMORE CUSTOMS HOUSE, MD US",1996-07-01,2003-12-30,Maryland,United States,39.28333,-76.61667,4.3
WBAN:93744,"BALTIMORE MARTIN FIELD, MD US",2005-01-01,2023-06-14,Maryland,United States,39.33333,-76.41667,6.4
WBAN:93721,"BALTIMORE WASHINGTON INTERNATIONAL AIRPORT, MD US",1944-12-31,2023-06-14,Maryland,United States,39.17329,-76.68408,42
WBAN:14606,"BANGOR INTERNATIONAL AIRPORT, ME US",1941-11-30,2023-06-14,Maine,United States,44.79791,-68.81852,44.9
WBAN:14616,"BAR HARBOR AIRPORT, ME US",2004-12-31,2023-06-14,Maine,United States,44.45,-68.36667,26.8
WBAN:54833,"BARABOO WISCONSIN DELLS AIRPORT, WI US",2005-04-06,2023-06-14,Wisconsin,United States,43.52194,-89.77361,297.5
WBAN:00301,"BARNES CO MUNICIPAL AIRPORT, ND US",2010-12-14,2023-06-14,North Dakota,United States,46.942,-98.018,427
WBAN:00194,"BARNWELL REGIONAL AIRPORT, SC US",2009-01-04,2023-06-14,South Carolina,United States,33.25,-81.383,75.3
WBAN:23161,"BARSTOW DAGGETT AIRPORT, CA US",1948-10-31,2023-06-14,California,United States,34.85371,-116.78702,584.8
WBAN:03959,"BARTLESVILLE MUNICIPAL AIRPORT, OK US",2005-02-23,2023-06-14,Oklahoma,United States,36.7664,-96.01292,210.4
WBAN:12809,"BARTOW MUNICIPAL AIRPORT, FL US",1944-04-14,2023-06-14,Florida,United States,27.95,-81.78333,38.1
WBAN:53992,"BASTROP MOREHOUSE MEMORIAL AIRPORT, LA US",2006-10-17,2023-06-14,Louisiana,United States,32.75611,-91.88056,50.9
WBAN:23904,"BATESVILLE 8 WNW, AR US",2006-12-18,2023-06-14,Arkansas,United States,35.8201,-91.7812,138.7
WBAN:53934,"BATESVILLE REGIONAL AIRPORT, AR US",2004-12-31,2023-06-14,Arkansas,United States,35.72611,-91.64722,141.1
WBAN:13970,"BATON ROUGE METRO AIRPORT, LA US",1941-12-31,2023-06-14,Louisiana,United States,30.53782,-91.14681,20.4
WBAN:14815,"BATTLE CREEK KELLOGG AIRPORT, MI US",1942-09-30,2023-06-14,Michigan,United States,42.31192,-85.24147,282.5
WBAN:24119,"BATTLE MOUNTAIN 4 SE, NV US",1948-10-31,2023-06-14,Nevada,United States,40.6118,-116.8917,1373.1
WBAN:94961,"BAUDETTE INTERNATIONAL AIRPORT, MN US",1983-11-03,2023-06-14,Minnesota,United States,48.72606,-94.61216,329.8
WBAN:00124,"BAY BRIDGE AIRPORT, MD US",2007-03-31,2023-06-14,Maryland,United States,38.967,-76.333,5.2
WBAN:12981,"BAY CITY MUNICIPAL AIRPORT, TX US",2004-12-31,2023-06-14,Texas,United States,28.97306,-95.86333,13.7
WBAN:63852,"BAY ST LOUIS STENNIS INTERNATIONAL AIRPORT, MS US",2004-12-31,2023-06-13,Mississippi,United States,30.36778,-89.45472,7
WBAN:00282,"BEACH AIRPORT, ND US",2010-11-17,2023-06-14,North Dakota,United States,46.925,-103.982,840
WBAN:93216,"BEALE AFB, CA US",1959-06-30,2023-06-14,California,United States,39.13333,-121.43333,38.1
WBAN:94947,"BEATRICE MUNICIPAL AIRPORT, NE US",2004-12-31,2023-06-14,Nebraska,United States,40.30139,-96.75389,403.6
WBAN:00203,"BEAUFORT CO AIRPORT, SC US",2009-01-19,2023-06-14,South Carolina,United States,32.4121,-80.6343,38.1
WBAN:93831,"BEAUFORT MCAS, SC US",1945-03-31,2023-06-14,South Carolina,United States,32.48333,-80.71667,11.3
WBAN:93765,"BEAUFORT MICHAEL J. SMITH FIELD, NC US",2004-12-31,2023-06-14,North Carolina,United States,34.73258,-76.65659,1.5
WBAN:00313,"BEAUMONT MUNICIPAL AIRPORT, TX US",2011-03-09,2023-06-14,Texas,United States,30.071,-94.216,10.1
WBAN:04813,"BEAVER FALLS, PA US",2005-02-24,2023-06-14,Pennsylvania,United States,40.76667,-80.4,390.8
WBAN:04892,"BEAVER ISLAND AIRPORT, MI US",2004-12-31,2023-06-14,Michigan,United States,45.68889,-85.56611,203
WBAN:03872,"BECKLEY RALEIGH CO AIRPORT, WV US",1963-05-14,2023-06-14,West Virginia,United States,37.78359,-81.12283,760.2
WBAN:63898,"BEDFORD 5 WNW, IN US",2007-10-02,2023-06-14,Indiana,United States,38.8882,-86.5707,231.6
WBAN:14702,"BEDFORD HANSCOM FIELD, MA US",1943-02-04,2023-06-14,Massachusetts,United States,42.46811,-71.29463,39
WBAN:12925,"BEEVILLE CHASE NAAS, TX US",1945-02-28,1992-09-30,Texas,United States,28.36667,-97.66667,20.1
WBAN:00127,"BEEVILLE MUNICIPAL AIRPORT, TX US",2007-06-24,2023-06-14,Texas,United States,28.35,-97.717,82.3
WBAN:04863,"BELLAIRE ANTRIM CO AIRPORT, MI US",2004-12-31,2023-06-14,Michigan,United States,44.98639,-85.20306,189
WBAN:00324,"BELLEFONTAINE REGIONAL AIRPORT, OH US",2011-05-11,2023-06-14,Ohio,United States,40.367,-83.817,342.3
WBAN:13802,"BELLEVILLE SCOTT AFB, IL US",1937-12-31,2023-06-14,Illinois,United States,38.55,-89.85,135
WBAN:14949,"BELLEVUE OFFUTT AFB, NE US",1948-01-11,2023-06-14,Nebraska,United States,41.11667,-95.91667,319.1
WBAN:24217,"BELLINGHAM INTERNATIONAL AIRPORT, WA US",1947-12-31,2023-06-14,Washington,United States,48.7991,-122.54069,45.9
WBAN:54760,"BELMAR FARMINGDALE ALLAIRE AIRPORT, NJ US",2004-12-31,2023-06-14,New Jersey,United States,40.186919,-74.124886,48.5
WBAN:14958,"BEMIDJI MUNICIPAL AIRPORT, MN US",2004-12-31,2023-06-14,Minnesota,United States,47.5,-94.93333,424.3
WBAN:00224,"BEND MUNICIPAL AIRPORT, OR US",2009-05-23,2023-06-14,Oregon,United States,44.095,-121.2,1055.2
WBAN:94061,"BENKELMAN JONES AIRPORT, NE US",2002-09-01,2004-12-30,Nebraska,United States,40.05806,-101.54694,952.8
WBAN:54781,"BENNINGTON MORSE STATE AIRPORT, VT US",2004-12-31,2023-06-14,Vermont,United States,42.8935,-73.24875,241
WBAN:54904,"BENSON MUNICIPAL AIRPORT, MN US",2005-04-06,2023-06-14,Minnesota,United States,45.33194,-95.65056,316.7
WBAN:94871,"BENTON HARBOR, MI US",2004-12-31,2023-06-13,Michigan,United States,42.12894,-86.41518,195.4
WBAN:03978,"BENTONVILLE MUNICIPAL AIRPORT, AR US",2004-12-31,2023-06-14,Arkansas,United States,36.35,-94.21667,395
WBAN:00191,"BERKELEY CO AIRPORT, SC US",2009-01-04,2023-06-14,South Carolina,United States,33.183,-80.033,22.3
WBAN:94700,"BERLIN REGIONAL AIRPORT, NH US",2004-12-31,2023-06-14,New Hampshire,United States,44.57604,-71.1782,342.3
WBAN:00419,"BERTHOUD PASS, CO US",2007-03-31,2023-05-02,Colorado,United States,39.8,-105.766,4113.3
WBAN:54733,"BEVERLY MUNICIPAL AIRPORT, MA US",2004-12-31,2023-06-14,Massachusetts,United States,42.5841,-70.9153,27.6
WBAN:03182,"BICYCLE LAKE FORT IRWIN ARMY AIR FIELD, CA US",2005-08-13,2023-06-14,California,United States,35.28333,-116.63333,716.3
WBAN:00115,"BIG BEAR CITY AIRPORT, CA US",2014-07-30,2023-06-14,California,United States,34.264,-116.854,2057.1
WBAN:04928,"BIG FORK MUNICIPAL AIRPORT, MN US",2004-12-31,2023-06-14,Minnesota,United States,47.78278,-93.65,411.2
WBAN:24164,"BIG PINEY MARBLETON AIRPORT, WY US",1998-12-31,2023-06-14,Wyoming,United States,42.57802,-110.10976,2118
WBAN:14864,"BIG RAPIDS ROBEN HOOD AIRPORT, MI US",2004-12-31,2023-06-14,Michigan,United States,43.71667,-85.5,282.9
WBAN:00476,"BIG SANDY REGIONAL AIRPORT, KY US",2012-05-30,2023-06-14,Kentucky,United States,37.75102,-82.63669,372.5
WBAN:03044,"BIG SPRING MCMAHON WRINKLE AIRPORT, TX US",2004-12-31,2023-06-14,Texas,United States,32.2125,-101.52139,784.3
WBAN:24033,"BILLINGS INTERNATIONAL AIRPORT, MT US",1935-04-30,2023-06-14,Montana,United States,45.80721,-108.54618,1094.3
WBAN:13820,"BILOXI KEESLER AFB, MS US",1942-05-08,2023-06-14,Mississippi,United States,30.41667,-88.91667,10.1
WBAN:04725,"BINGHAMTON GREATER AP, NY US",1947-12-31,2023-06-14,New York,United States,42.20678,-75.97993,485.7
WBAN:13876,"BIRMINGHAM AIRPORT, AL US",1942-07-31,2023-06-14,Alabama,United States,33.56545,-86.7449,187.7
WBAN:03883,"BIRMINGHAM WSFO, AL US",2002-09-01,2003-12-30,Alabama,United States,33.46667,-86.83333,226.8
WBAN:23157,"BISHOP AIRPORT, CA US",1943-01-15,2023-06-14,California,United States,37.37114,-118.35886,1252.8
WBAN:24011,"BISMARCK MUNICIPAL AIRPORT, ND US",1936-06-30,2023-06-14,South Dakota,United States,46.78232,-100.75752,503.2
WBAN:00386,"BLACK HILLS AIRPORT CLYDE ICE FIELD, SD US",2005-06-23,2023-06-14,South Dakota,United States,44.483,-103.783,1198.2
WBAN:00286,"BLACK RIVER FALLS AREA AIRPORT, WI US",2010-11-17,2023-06-14,Wisconsin,United States,44.251,-90.855,255.1
WBAN:53881,"BLACKSBURG VIRGINIA TECH AIRPORT, VA US",2004-12-31,2023-06-14,Virginia,United States,37.2075,-80.40778,649.8
WBAN:13726,"BLACKSTONE, VA US",1943-05-31,1958-12-31,Virginia,United States,37.08333,-77.95,133.3
WBAN:63826,"BLACKVILLE 3 W, SC US",2002-07-12,2023-06-14,South Carolina,United States,33.355,-81.3279,96.6
WBAN:00212,"BLACKWELL TONKAWA MUNICIPAL AIRPORT, OK US",2009-03-11,2023-06-14,Oklahoma,United States,36.75,-97.35,314.2
WBAN:00436,"BLAIR MUNICIPAL AIRPORT, NE US",2008-12-31,2023-06-14,Nebraska,United States,41.41167,-96.10861,395.9
WBAN:00158,"BLAKE FIELD AIRPORT, CO US",2012-02-08,2023-06-14,Colorado,United States,38.783,-108.067,1583.1
WBAN:53012,"BLANDING 26 SSW, UT US",2010-08-14,2014-05-31,Utah,United States,37.2667,-109.6074,1338.1
WBAN:03036,"BLANDING MUNICIPAL AIRPORT, UT US",2014-07-23,2023-06-14,Utah,United States,37.58278,-109.48306,1787.7
WBAN:94793,"BLOCK ISLAND STATE AIRPORT, RI US",1989-12-31,2023-06-14,Rhode Island,United States,41.16806,-71.57778,32
WBAN:03893,"BLOOMINGTON MONROE CO AIRPORT, IN US",2004-12-31,2023-06-14,Indiana,United States,39.14317,-86.61676,253.3
WBAN:54831,"BLOOMINGTON NORMAL AIRPORT, IL US",2005-01-01,2023-06-14,Illinois,United States,40.48333,-88.95,263.7
WBAN:23225,"BLUE CANYON NYACK AIRPORT, CA US",1947-12-31,2023-06-14,California,United States,39.27617,-120.70927,1611.2
WBAN:14753,"BLUE HILL LCD, MA US",1998-09-30,2023-03-31,Massachusetts,United States,42.2123,-71.1137,190.5
WBAN:03859,"BLUEFIELD MERCER CO AIRPORT, WV US",1999-12-31,2023-06-13,West Virginia,United States,37.2978,-81.20358,870.1
WBAN:53004,"BLUFF 32 NW, UT US",2010-08-12,2014-05-31,Utah,United States,37.601,-109.9886,1959.3
WBAN:23158,"BLYTHE ASOS, CA US",1942-06-12,2023-06-14,California,United States,33.61876,-114.71451,120.4
WBAN:13814,"BLYTHEVILLE AFB, AR US",1942-08-31,2023-06-13,Arkansas,United States,35.96667,-89.95,77.4
WBAN:53869,"BLYTHEVILLE MUNICIPAL AIRPORT, AR US",2004-12-31,2023-06-14,Arkansas,United States,35.93778,-89.83318,77.6
WBAN:12803,"BOCA RATON AIRPORT, FL US",2005-08-29,2023-06-14,Florida,United States,26.37833,-80.1075,4
WBAN:93245,"BODEGA 6 WSW, CA US",2008-06-13,2023-06-14,California,United States,38.3208,-123.0747,19.2
WBAN:00263,"BOERNE STAGE FIELD AIRPORT, TX US",2014-07-30,2023-06-14,Texas,United States,29.724,-98.695,422.1
WBAN:24131,"BOISE AIR TERMINAL, ID US",1930-12-31,2023-06-14,Idaho,United States,43.56705,-116.24062,860.5
WBAN:63871,"BONIFAY TRI CO AIRPORT, FL US",2006-08-31,2023-06-13,Florida,United States,30.84315,-85.60431,31.2
WBAN:00272,BOOMVANG SPAR OIL PLATFORM,2010-07-26,2023-06-14,null,null,27.35,-94.633,101.2
WBAN:04906,"BOONE MUNICIPAL AIRPORT, IA US",2004-12-31,2023-06-14,Iowa,United States,42.04944,-93.8475,353.6
WBAN:63819,"BOONE WATAUGA CO HOSPITAL HELIPORT, NC US",2004-12-31,2023-06-14,North Carolina,United States,36.2,-81.65,910.4
WBAN:12884,"BOOTHVILLE ASOS, LA US",1965-01-31,2020-06-17,Louisiana,United States,29.333,-89.4075,0.9
WBAN:03024,"BORGER HUTCHINSON CO AIRPORT, TX US",2004-12-31,2023-06-14,Texas,United States,35.69502,-101.39551,926.8
WBAN:94994,"BOSCOBEL AIRPORT, WI US",2004-12-31,2023-06-14,Wisconsin,United States,43.15614,-90.67757,203.1
WBAN:14739,"BOSTON LOGAN INTERNATIONAL AIRPORT, MA US",1943-11-20,2023-06-14,Massachusetts,United States,42.36057,-71.00975,3.2
WBAN:94075,"BOULDER 14 W, CO US",2003-09-26,2023-06-14,Colorado,United States,40.0354,-105.5409,2995.6
WBAN:00269,"BOULDER CITY MUNICIPAL AIRPORT, NV US",2010-06-23,2023-06-14,Nevada,United States,35.947,-114.861,671.2
WBAN:00160,"BOULDER MUNICIPAL AIRPORT, CO US",2010-01-31,2023-06-14,Colorado,United States,40.033,-105.217,1612.1
WBAN:00310,"BOUNDARY CO AIRPORT, ID US",2011-01-17,2023-06-14,Idaho,United States,48.726,-116.295,711.1
WBAN:03085,"BOWIE 23 SSE, AZ US",2010-02-25,2014-05-31,Arizona,United States,32.0095,-109.3891,1564.5
WBAN:00209,"BOWIE MUNICIPAL AIRPORT, TX US",2014-07-30,2023-06-14,Texas,United States,33.6,-97.783,336.2
WBAN:63849,"BOWLING GREEN 21 NNE, KY US",2004-05-18,2023-06-14,Kentucky,United States,37.2504,-86.2325,240.8
WBAN:93808,"BOWLING GREEN WARREN CO AIRPORT, KY US",1947-12-31,2023-06-14,Kentucky,United States,36.96467,-86.42379,159.3
WBAN:00353,"BOYSEN THERMOPOL, WY US",2012-08-05,2023-06-14,Wyoming,United States,43.467,-108.389,2225
WBAN:24132,"BOZEMAN GALLATIN FIELD AIRPORT, MT US",1947-12-31,2023-06-14,Montana,United States,45.78759,-111.16152,1350.7
WBAN:04751,"BRADFORD REGIONAL AIRPORT, PA US",1957-06-30,2023-06-14,Pennsylvania,United States,41.79835,-78.63543,642.2
WBAN:93942,"BRADY CURTIS FIELD AIRPORT, TX US",2005-12-31,2023-06-14,Texas,United States,31.17833,-99.32444,556.9
WBAN:94938,"BRAINERD CROW WING CO AIRPORT, MN US",2004-12-31,2023-06-14,Minnesota,United States,46.40206,-94.12734,372.5
WBAN:00207,"BRANSON AIRPORT, MO US",2009-01-31,2023-06-14,Missouri,United States,36.533,-93.2,397.2
WBAN:00451,"BRANSON WEST MUNICIPAL EMERSON FIELD AIRPORT, MO US",2014-07-30,2023-06-14,Missouri,United States,36.6985,-93.4022,411.2
WBAN:00434,BRAZOS 133B,2010-05-06,2020-07-24,null,null,28.058,-95.872,0
WBAN:00435,BRAZOS 451 OILP,2010-05-17,2023-06-14,null,null,28.5,-95.716,34.1
WBAN:94263,"BREMERTON, WA US",2004-12-31,2023-06-14,Washington,United States,47.48333,-122.76667,135.3
WBAN:53928,"BRENHAM MUNICIPAL AIRPORT, TX US",2004-12-31,2023-06-14,Texas,United States,30.21889,-96.37417,93.9
WBAN:63899,"BREWTON 3 NNE, AL US",2008-01-16,2023-06-14,Alabama,United States,31.1449,-87.0518,51.8
WBAN:53976,"BRIDGEPORT MUNICIPAL AIRPORT, TX US",2004-12-31,2023-06-14,Texas,United States,33.17528,-97.82833,259.4
WBAN:00433,"BRIDGEPORT SONORA JUNCTION, CA US",2009-08-26,2023-06-14,California,United States,38.3557,-119.519,2057.1
WBAN:04138,"BRIGHAM CITY 28 WNW, UT US",2007-08-18,2023-06-14,Utah,United States,41.6163,-112.5437,1509.1
WBAN:24180,"BRIGHAM CITY AIRPORT, UT US",2014-07-23,2023-06-14,Utah,United States,41.55222,-112.06222,1288.1
WBAN:13877,"BRISTOL AIRPORT, TN US",1947-12-31,2023-06-14,Tennessee,United States,36.47964,-82.39893,455.9
WBAN:94946,"BROKEN BOW MUNICIPAL AIRPORT, NE US",2004-12-31,2023-06-14,Nebraska,United States,41.43653,-99.63851,771.1
WBAN:03072,"BRONTE 11 NNE, TX US",2006-12-14,2023-06-14,Texas,United States,32.0408,-100.2495,608.7
WBAN:00317,"BROOKHAVEN LINCOLN CO AIRPORT, MS US",2011-04-01,2023-06-14,Mississippi,United States,31.606,-90.409,149
WBAN:24267,"BROOKINGS STATE AIRPORT, OR US",1977-02-24,2023-06-14,Oregon,United States,42.07444,-124.29,139.9
WBAN:94902,"BROOKINGS, SD US",2004-12-31,2023-06-14,South Dakota,United States,44.3,-96.8,502.3
WBAN:12818,"BROOKSVILLE HERNANDO CO AIRPORT, FL US",2004-12-31,2023-06-14,Florida,United States,28.47388,-82.45374,19.7
WBAN:03065,"BROOMFIELD JEFFERSON CO AIRPORT, CO US",2005-05-23,2023-06-14,Colorado,United States,39.9,-105.11667,1705.4
WBAN:12919,"BROWNSVILLE S PADRE ISLAND INTERNATIONAL AIRPORT, TX US",1946-12-31,2023-06-14,Texas,United States,25.91459,-97.42314,5.7
WBAN:93943,"BROWNWOOD MUNICIPAL AIRPORT, TX US",2004-12-31,2023-06-14,Texas,United States,31.8,-98.95,419.7
WBAN:63856,"BRUNSWICK 23 S, GA US",2004-12-14,2023-06-14,Georgia,United States,30.8078,-81.4596,7.6
WBAN:03721,"BRUNSWICK CO AIRPORT, NC US",2004-12-31,2023-06-14,North Carolina,United States,33.92917,-78.07472,7.6
WBAN:53883,"BRUNSWICK GLYNCO JETPORT AIRPORT, GA US",2004-12-31,2023-06-14,Georgia,United States,31.25889,-81.46611,7.9
WBAN:13878,"BRUNSWICK MCKINNON AIRPORT, GA US",1948-11-30,2023-06-14,Georgia,United States,31.1527,-81.39053,4.3
WBAN:14611,"BRUNSWICK NAS, ME US",1945-01-31,2010-02-07,Maine,United States,43.9,-69.93333,21.3
WBAN:23159,"BRYCE CANYON AIRPORT, UT US",1948-10-31,2023-06-14,Utah,United States,37.70127,-112.14897,2309.9
WBAN:00226,"BUCKEYE MUNICIPAL AIRPORT, AZ US",2012-12-31,2023-06-14,Arizona,United States,33.417,-112.683,311.2
WBAN:53005,"BUENA VISTA 2 SSE, CO US",2010-07-16,2014-05-31,Colorado,United States,38.811,-106.1219,2418
WBAN:03064,"BUENA VISTA CENTRAL COLORADO REGIONAL AIRPORT, CO US",2010-03-31,2023-06-14,Colorado,United States,38.6975,-106.07,2421.9
WBAN:94081,"BUFFALO 13 ESE, SD US",2004-09-21,2023-06-14,South Dakota,United States,45.516,-103.3017,878.7
WBAN:94037,"BUFFALO ASOS, SD US",1998-12-31,2023-06-14,South Dakota,United States,45.604294,-103.546996,922
WBAN:94054,"BUFFALO JOHNSON CO AIRPORT, WY US",2004-12-31,2023-06-14,Wyoming,United States,44.38121,-106.7195,1503.8
WBAN:54901,"BUFFALO MUNICIPAL AIRPORT, MN US",2004-12-31,2023-06-14,Minnesota,United States,45.15917,-93.84333,294.7
WBAN:14733,"BUFFALO NIAGARA INTERNATIONAL, NY US",1942-01-31,2023-06-14,New York,United States,42.93998,-78.73606,216.2
WBAN:03068,"BULLSEYE AUXILIARY AIRFIELD USAFA, CO US",2006-04-30,2023-06-14,Colorado,United States,38.76667,-104.3,1837.9
WBAN:23152,"BURBANK GLENDALE PASADENA AIRPORT, CA US",1943-05-31,2023-06-14,California,United States,34.19966,-118.36543,222.7
WBAN:24133,"BURLEY MUNICIPAL AIRPORT, ID US",1947-12-31,2023-06-14,Idaho,United States,42.54525,-113.7686,1262.9
WBAN:93783,"BURLINGTON ALAMANCE REGIONAL AIRPORT, NC US",2004-12-31,2023-06-14,North Carolina,United States,36.04751,-79.47375,184.9
WBAN:03026,"BURLINGTON CARSON AIRPORT, CO US",2004-12-31,2023-06-14,Colorado,United States,39.24148,-102.28192,1278.2
WBAN:14742,"BURLINGTON INTERNATIONAL AIRPORT, VT US",1947-12-31,2023-06-14,Vermont,United States,44.46825,-73.1499,101.1
WBAN:14931,"BURLINGTON MUNICIPAL AIRPORT, IA US",1947-12-31,2023-06-14,Iowa,United States,40.77291,-91.12546,208.2
WBAN:04866,"BURLINGTON MUNICIPAL AIRPORT, WI US",2004-12-31,2023-06-14,Wisconsin,United States,42.69,-88.30361,237.4
WBAN:94282,"BURLINGTON SKAGIT REGIONAL BAYVIEW AIRPORT, WA US",2004-12-31,2023-06-14,Washington,United States,48.46667,-122.41667,42.7
WBAN:03999,"BURNET MUNICIPAL AIRPORT, TX US",2004-12-31,2023-06-14,Texas,United States,30.74067,-98.23539,386.1
WBAN:94185,"BURNS MUNICIPAL AIRPORT, OR US",1972-12-31,2023-06-14,Oregon,United States,43.59486,-118.95788,1262.8
WBAN:64705,"BUTLER CO AIRPORT, PA US",2004-12-31,2023-06-14,Pennsylvania,United States,40.77694,-79.94972,380.1
WBAN:00335,"BUTLER MUNICIPAL AIRPORT, GA US",2015-05-10,2023-06-14,Georgia,United States,32.567,-84.251,203.3
WBAN:24135,"BUTTE BERT MOONEY AIRPORT, MT US",1947-12-31,2023-06-14,Montana,United States,45.96436,-112.50147,1677.8
WBAN:14817,"CADILLAC WEXFORD CO AIRPORT, MI US",1948-11-30,2023-06-14,Michigan,United States,44.28333,-85.41667,397.8
WBAN:03960,"CAHOKIA ST LOUIS DOWNTOWN AIRPORT, IL US",2004-12-31,2023-06-14,Illinois,United States,38.56402,-90.14869,123.4
WBAN:03850,"CAIRNS FIELD FORT RUCKER, AL US",1954-10-18,2023-06-14,Alabama,United States,31.26667,-85.71667,91.7
WBAN:93809,"CAIRO REGIONAL AIRPORT, IL US",2005-10-31,2023-05-13,Illinois,United States,37.06444,-89.21944,97.8
WBAN:54743,"CALDWELL ESSEX CO AIRPORT, NJ US",2004-12-31,2023-06-14,New Jersey,United States,40.87645,-74.28284,52
WBAN:94195,"CALDWELL INDUSTRIAL AIRPORT, ID US",2004-12-31,2023-06-14,Idaho,United States,43.65,-116.63333,740.4
WBAN:23901,"CALDWELL MUNICIPAL AIRPORT, TX US",2005-12-31,2023-06-14,Texas,United States,30.51556,-96.70417,119.2
WBAN:00151,"CALEDONIA CO AIRPORT, VT US",2008-12-31,2023-06-14,Vermont,United States,44.567,-72.017,362.1
WBAN:12986,"CALHOUN CO AIRPORT, TX US",2004-12-31,2023-06-14,Texas,United States,28.65417,-96.68139,9.1
WBAN:03163,"CALIENTE, NV US",2012-01-22,2012-01-22,Nevada,United States,37.61222,-114.52639,1333.8
WBAN:23136,"CAMARILLO AIRPORT, CA US",1952-12-08,2023-06-14,California,United States,34.21142,-119.08762,21.6
WBAN:00356,"CAMBRIDGE DORCHESTER AIRPORT, MD US",2006-10-02,2023-06-14,Maryland,United States,38.533,-76.033,6.1
WBAN:04909,"CAMBRIDGE MUNICIPAL AIRPORT, MN US",2004-12-31,2023-06-14,Minnesota,United States,45.55944,-93.265,288
WBAN:00329,"CAMDENTON MEMORIAL AIRPORT, MO US",2011-06-29,2023-06-13,Missouri,United States,37.974,-92.691,324
WBAN:53159,"CAMERON 25 SSE, AZ US",2009-12-14,2014-05-31,Arizona,United States,35.5037,-111.3445,1465.2
WBAN:12989,"CAMERON HELIPORT, LA US",2005-05-31,2005-09-11,Louisiana,United States,29.78333,-93.3,0.9
WBAN:00351,"CAMERON MUNICIPAL AIRPORT, TX US",2012-04-30,2023-06-14,Texas,United States,30.879,-96.971,123.1
WBAN:03749,"CAMP DAVID, MD US",2006-04-30,2023-06-14,Maryland,United States,39.645,-77.468,563
WBAN:03154,"CAMP PENDLETON MCAS, CA US",1966-06-30,2023-06-14,California,United States,33.30424,-117.35508,21.4
WBAN:13705,"CAMP SPRINGS ANDREWS AFB, MD US",1943-06-18,2023-06-14,Maryland,United States,38.81667,-76.86667,86
WBAN:53160,"CAMP VERDE 3 N, AZ US",2010-03-01,2014-05-31,Arizona,United States,34.6136,-111.8431,1046.7
WBAN:03164,"CAMPO ASOS, CA US",2004-12-31,2020-10-25,California,United States,32.6261,-116.4681,805
WBAN:93046,"CANADIAN, TX US",2004-12-31,2023-06-14,Texas,United States,35.9,-100.4,730.3
WBAN:54923,"CANBY MYERS FIELD AIRPORT, MN US",2006-10-17,2023-06-14,Minnesota,United States,44.72944,-96.26611,363.6
WBAN:00285,"CANDO MUNICIPAL AIRPORT, ND US",2010-11-17,2023-06-14,North Dakota,United States,48.48,-99.236,450.2
WBAN:63848,"CANTON CHEROKEE CO AIRPORT, GA US",2004-12-31,2011-10-02,Georgia,United States,34.31056,-84.42389,371.6
WBAN:03739,"CAPE CHARLES 5 ENE, VA US",2004-03-02,2023-06-14,Virginia,United States,37.2907,-75.927,8.8
WBAN:03935,"CAPE GIRARDEAU MUNICIPAL AIRPORT, MO US",1972-12-31,2023-06-14,Missouri,United States,37.22545,-89.57855,101.8
WBAN:93729,"CAPE HATTERAS BILLY MITCHELL FIELD, NC US",1957-02-28,2023-06-14,North Carolina,United States,35.23238,-75.62223,3.8
WBAN:93810,"CARBONDALE SOUTHERN ILLINOIS AIRPORT, IL US",2004-12-31,2023-06-14,Illinois,United States,37.78329,-89.24533,122.1
WBAN:14607,"CARIBOU WEATHER FORECAST OFFICE, ME US",1947-12-31,2023-06-14,Maine,United States,46.87049,-68.01723,188.6
WBAN:00468,"CARL R KELLER FIELD AIRPORT, OH US",2014-07-30,2023-06-14,Ohio,United States,41.51627,-82.86948,179.8
WBAN:03177,"CARLSBAD MCCLELLAN PALOMAR AIRPORT, CA US",2004-12-31,2023-06-14,California,United States,33.12993,-117.27651,95.3
WBAN:63840,"CARMI MUNICIPAL AIRPORT, IL US",2004-12-31,2023-05-03,Illinois,United States,38.08944,-88.12306,118.3
WBAN:54828,"CARO TUSCOLA AREA AIRPORT, MI US",2005-01-31,2023-06-14,Michigan,United States,43.45889,-83.44556,213.7
WBAN:00266,"CARRINGTON MUNICIPAL AIRPORT, ND US",2010-06-09,2023-06-14,North Dakota,United States,47.451,-99.151,490.1
WBAN:03082,"CARRIZOZO 1 W, NM US",2009-07-08,2014-05-31,New Mexico,United States,33.6476,-105.8945,1635.6
WBAN:04910,"CARROLL ARTHUR N NEU AIRPORT, IA US",2004-12-31,2023-06-14,Iowa,United States,42.04611,-94.78889,367
WBAN:00171,"CARSON AIRPORT, NV US",2010-07-13,2023-06-14,Nevada,United States,39.183,-119.733,1432.3
WBAN:53873,"CARTERSVILLE AIRPORT, GA US",2004-12-31,2023-06-14,Georgia,United States,34.11587,-84.850713,230
WBAN:03914,"CASA GRANDE MUNICIPAL AIRPORT, AZ US",2004-12-31,2023-06-14,Arizona,United States,32.95,-111.76667,445.6
WBAN:94204,"CASCADE LOCKS, WA US",2005-02-24,2013-09-29,Washington,United States,45.68333,-121.88333,46
WBAN:24089,"CASPER NATRONA CO AIRPORT, WY US",1939-12-31,2023-06-14,Wyoming,United States,42.89778,-106.47361,1621.1
WBAN:23203,"CASTLE AFB, CA US",1941-12-31,2023-06-14,California,United States,37.38333,-120.56667,58.2
WBAN:00177,"CASTROVILLE MUNICIPAL AIRPORT, TX US",2014-07-30,2023-06-14,Texas,United States,29.85,-98.85,235
WBAN:00465,"CATTARAUGUS CO OLEAN AIRPORT, NY US",2012-04-22,2023-06-14,New York,United States,42.24122,-78.37136,651.1
WBAN:00283,"CAVALIER MUNICIPAL AIRPORT, ND US",2010-11-17,2023-06-14,North Dakota,United States,48.784,-97.632,272.2
WBAN:93033,"CAVERN CITY AIRPORT, NM US",1942-09-09,2023-06-14,New Mexico,United States,32.33355,-104.25846,990.5
WBAN:53013,"CEDAR CITY 18 SSE, UT US",2010-08-03,2014-05-31,Utah,United States,37.4572,-113.2248,1553.3
WBAN:93129,"CEDAR CITY AIRPORT, UT US",1948-10-31,2023-06-14,Utah,United States,37.70672,-113.09698,1703.8
WBAN:14990,"CEDAR RAPIDS MUNICIPAL AIRPORT, IA US",1972-12-31,2023-06-14,Iowa,United States,41.882917,-91.724591,256
WBAN:03084,"CENTER A 4 SSW, CO US",2009-11-01,2014-05-31,Colorado,United States,37.7068,-106.1444,2340.3
WBAN:54939,"CENTERVILLE MUNICIPAL AIRPORT, IA US",2009-05-09,2023-06-14,Iowa,United States,40.684,-92.901,311.8
WBAN:53887,"CENTRALIA MUNICIPAL AIRPORT, IL US",2004-12-31,2023-06-14,Illinois,United States,38.51472,-89.09194,162.8
WBAN:03881,"CENTREVILLE WSMO, AL US",1976-03-24,2005-10-06,Alabama,United States,32.9,-87.25,138.1
WBAN:24017,"CHADRON MUNICIPAL AIRPORT, NE US",1947-12-31,2023-06-14,Nebraska,United States,42.83736,-103.09806,1003
WBAN:04114,"CHALLIS AIRPORT, ID US",2001-08-31,2023-06-14,Idaho,United States,44.523,-114.21612,1534.1
WBAN:93092,"CHAMA NWS AWRS, NM US",2004-12-31,2012-09-29,New Mexico,United States,36.9,-106.58333,2393
WBAN:94943,"CHAMBERLAIN MUNICIPAL AIRPORT, SD US",2004-12-31,2023-06-14,South Dakota,United States,43.76667,-99.31833,519.1
WBAN:54808,"CHAMPAIGN 9 SW, IL US",2002-12-19,2023-06-14,Illinois,United States,40.0528,-88.3729,213.4
WBAN:94870,"CHAMPAIGN URBANA WILLARD AIRPORT, IL US",2004-12-31,2023-06-14,Illinois,United States,40.0324,-88.27547,226.5
WBAN:53128,"CHANDLER MUNICIPAL AIRPORT, AZ US",2004-12-31,2023-06-14,Arizona,United States,33.26889,-111.81278,378.9
WBAN:53936,"CHANDLER MUNICIPAL AIRPORT, OK US",2004-12-31,2023-06-14,Oklahoma,United States,35.72361,-96.82,299.9
WBAN:13981,"CHANUTE MARTIN JOHNSON AIRPORT, KS US",1947-12-31,2023-06-14,Kansas,United States,37.6705,-95.48462,298.8
WBAN:93785,"CHAPEL HILL WILLIAMS AIRPORT, NC US",2004-12-31,2018-05-14,North Carolina,United States,35.93333,-79.06417,156.1
WBAN:04913,"CHARITON MUNICIPAL AIRPORT, IA US",2004-12-31,2023-06-14,Iowa,United States,41.01944,-93.35944,320
WBAN:00198,"CHARLESTON EXECUTIVE AIRPORT, SC US",2012-12-31,2023-06-14,South Carolina,United States,32.701,-80.003,5.2
WBAN:13880,"CHARLESTON INTL. AIRPORT, SC US",1944-12-31,2023-06-14,South Carolina,United States,32.89945,-80.0407,11.8
WBAN:13866,"CHARLESTON WEST VIRGINIA INTERNATIONAL YEAGER AIRPORT, WV US",1949-01-31,2023-06-14,West Virginia,United States,38.3795,-81.59112,278.1
WBAN:04870,"CHARLEVOIX MUNICIPAL AIRPORT, MI US",2004-12-31,2023-06-14,Michigan,United States,45.30472,-85.27472,196.9
WBAN:13881,"CHARLOTTE DOUGLAS AIRPORT, NC US",1941-07-21,2023-06-14,North Carolina,United States,35.22254,-80.95433,222.6
WBAN:04877,"CHARLOTTE FITCH H BEACH AIRPORT, MI US",2004-12-31,2023-06-14,Michigan,United States,42.57444,-84.81139,267.6
WBAN:03759,"CHARLOTTESVILLE 2 SSE, VA US",2007-03-28,2023-06-14,Virginia,United States,37.9975,-78.4656,358.7
WBAN:93736,"CHARLOTTESVILLE ALBEMARLE AIRPORT, VA US",1961-04-19,2023-06-14,Virginia,United States,38.1374,-78.45513,192.3
WBAN:54810,"CHATHAM 1 SE, MI US",2004-11-09,2023-06-14,Michigan,United States,46.3345,-86.92,266.7
WBAN:94624,"CHATHAM MUNICIPAL AIRPORT, MA US",2004-12-31,2023-06-14,Massachusetts,United States,41.68778,-69.99318,18.5
WBAN:13882,"CHATTANOOGA AIRPORT, TN US",1947-12-31,2023-06-14,Tennessee,United States,35.03363,-85.20039,204
WBAN:04893,"CHEBOYGAN CO AIRPORT, MI US",2004-12-31,2023-06-14,Michigan,United States,45.65361,-84.51917,193.5
WBAN:00119,"CHEHALIS CENTRALIA AIRPORT, WA US",2007-02-15,2023-06-14,Washington,United States,46.683,-122.983,54.3
WBAN:00197,"CHERAW MUNICIPAL AIRPORT LYNCH BELLINGER FIELD, SC US",2009-01-04,2023-06-14,South Carolina,United States,34.717,-79.95,73.2
WBAN:00355,"CHEROKEE CO AIRPORT, GA US",2004-12-31,2023-06-14,Georgia,United States,34.317,-84.417,372.2
WBAN:54920,"CHEROKEE MUNICIPAL AIRPORT, IA US",2005-12-31,2023-06-14,Iowa,United States,42.73167,-95.55583,373.7
WBAN:93776,"CHERRY POINT MCAS ASOS 2, NC US",2015-02-20,2016-01-28,North Carolina,United States,34.88333,-76.86667,9.1
WBAN:00169,"CHESTER AIRPORT, CT US",2008-12-31,2023-06-14,Connecticut,United States,41.384,-72.506,127.1
WBAN:00192,"CHESTER CATAWBA REGIONAL AIRPORT, SC US",2009-01-04,2023-06-14,South Carolina,United States,34.783,-81.2,200.3
WBAN:00136,"CHESTER CO GO CARLSON AIRPORT, PA US",2007-12-02,2023-06-14,Pennsylvania,United States,39.983,-75.867,201.2
WBAN:00153,"CHESTERFIELD CO AIRPORT, VA US",2010-05-16,2023-06-14,Virginia,United States,37.4,-77.517,72.2
WBAN:00143,"CHEYENNE CO MUNICIPAL AIRPORT, KS US",2012-04-22,2023-06-14,Kansas,United States,39.767,-101.8,1040.3
WBAN:24018,"CHEYENNE WSFO AIRPORT, WY US",1947-12-31,2023-06-14,Wyoming,United States,41.15788,-104.80814,1864.8
WBAN:04808,"CHICAGO AURORA MUNICIPAL AIRPORT, IL US",2004-12-31,2023-06-14,Illinois,United States,41.77132,-88.48148,213.7
WBAN:04879,"CHICAGO LANSING MUNICIPAL AIRPORT, IL US",2004-12-31,2023-06-14,Illinois,United States,41.53972,-87.53194,187.8
WBAN:14819,"CHICAGO MIDWAY AIRPORT, IL US",1947-12-31,2023-06-14,Illinois,United States,41.78412,-87.75514,185.8
WBAN:94846,"CHICAGO OHARE INTERNATIONAL AIRPORT, IL US",1946-09-30,2023-06-14,Illinois,United States,41.96017,-87.93164,204.8
WBAN:04838,"CHICAGO PALWAUKEE AIRPORT, IL US",2004-12-31,2023-06-14,Illinois,United States,42.12076,-87.90479,191.6
WBAN:14880,"CHICAGO WAUKEGAN REGIONAL AIRPORT, IL US",2004-12-31,2023-06-14,Illinois,United States,42.42546,-87.8634,216.5
WBAN:94892,"CHICAGO WEST CHICAGO DUPAGE AIRPORT, IL US",2004-12-31,2023-06-14,Illinois,United States,41.89641,-88.25119,228.3
WBAN:53935,"CHICKASHA MUNICIPAL AIRPORT, OK US",2004-12-31,2023-06-14,Oklahoma,United States,35.09611,-97.96611,350.5
WBAN:93203,"CHICO ARMY FLYING SCHOOL, CA US",2005-02-24,2023-06-14,California,United States,39.8,-121.85,82.9
WBAN:14703,"CHICOPEE FALLS WESTOVER FIELD, MA US",1941-03-31,2023-06-14,Massachusetts,United States,42.2,-72.53333,75
WBAN:23007,"CHILDRESS MUNICIPAL AIRPORT, TX US",1943-02-14,2023-06-14,Texas,United States,34.42747,-100.28391,593.9
WBAN:13301,"CHILLICOTHE 22 ENE, MO US",2005-06-10,2023-06-14,Missouri,United States,39.8668,-93.147,253.9
WBAN:53916,"CHILLICOTHE AGRI SCIENCE CENTER, MO US",2004-12-31,2023-06-14,Missouri,United States,39.819848,-93.576951,231
WBAN:93104,"CHINA LAKE NAF, CA US",1945-03-31,2023-06-14,California,United States,35.686254,-117.690911,680
WBAN:03179,"CHINO AIRPORT, CA US",2004-12-31,2023-06-14,California,United States,33.97563,-117.62487,193.9
WBAN:04869,"CHIPPEWA INTERNATIONAL AIRPORT, MI US",2004-12-31,2023-06-14,Michigan,United States,46.25,-84.46667,243.5
WBAN:14991,"CHIPPEWA VALLEY REGIONAL AIRPORT, WI US",1949-09-30,2023-06-14,Wisconsin,United States,44.86654,-91.48809,269.4
WBAN:53848,"CHOCTAW NAVAL OUTLYING FIELD MILTON, FL US",2007-05-31,2023-06-13,Florida,United States,30.51195,-86.95406,34
WBAN:93812,"CINCINNATI MUNICIPAL AIRPORT LUNKEN FIELD, OH US",1972-12-31,2023-06-14,Ohio,United States,39.106,-84.41609,144.8
WBAN:93814,"CINCINNATI NORTHERN KENTUCKY INTERNATIONAL AIRPORT, KY US",1947-12-31,2023-06-14,Kentucky,United States,39.04443,-84.67241,262.4
WBAN:63891,"CLANTON 2 NE, AL US",2007-03-13,2023-06-14,Alabama,United States,32.8516,-86.6115,178
WBAN:53940,"CLAREMORE REGIONAL AIRPORT, OK US",2004-12-31,2023-06-14,Oklahoma,United States,36.29417,-95.47944,221
WBAN:00215,"CLARENCE E PAGE MUNICIPAL AIRPORT, OK US",2009-03-25,2023-06-14,Oklahoma,United States,35.483,-97.817,413
WBAN:04937,"CLARINDA SCHENCK FIELD AIRPORT, IA US",2004-12-31,2023-06-14,Iowa,United States,40.72167,-95.02639,302.4
WBAN:04907,"CLARION MUNICIPAL AIRPORT, IA US",2004-12-31,2023-06-14,Iowa,United States,42.74167,-93.75889,354.2
WBAN:03802,"CLARKSBURG BENEDUM AIRPORT, WV US",2004-12-31,2023-06-14,West Virginia,United States,39.30218,-80.22392,367.3
WBAN:03894,"CLARKSVILLE OUTLAW AIRPORT, TN US",2004-12-31,2023-06-14,Tennessee,United States,36.61689,-87.41174,167.7
WBAN:53963,"CLARKSVILLE RED RIVER CO AIRPORT, TX US",2005-08-16,2017-03-25,Texas,United States,33.59306,-95.06361,134.1
WBAN:00366,"CLAXTON EVANS CO AIRPORT, GA US",2008-12-31,2023-06-14,Georgia,United States,32.2,-81.87,34.1
WBAN:03094,"CLAYTON 3 ENE, NM US",2010-05-10,2014-05-31,New Mexico,United States,36.4701,-103.1238,1488.9
WBAN:94605,"CLAYTON LAKE RAMOS, ME US",2005-04-24,2023-06-14,Maine,United States,46.61667,-69.53333,304.8
WBAN:23051,"CLAYTON MUNICIPAL AIR PARK, NM US",1948-06-30,2023-06-14,New Mexico,United States,36.44834,-103.15366,1514.5
WBAN:54792,"CLEARFIELD LAWRENCE AIRPORT, PA US",2004-12-31,2023-06-14,Pennsylvania,United States,41.04647,-78.4112,459.9
WBAN:92828,"CLEARWATER AIR PARK, FL US",2018-06-30,2023-06-14,Florida,United States,27.977214,-82.759057,21.6
WBAN:53981,"CLEBURNE MUNICIPAL AIRPORT, TX US",2005-12-31,2023-06-14,Texas,United States,32.35389,-97.43389,260.3
WBAN:53850,"CLEMSON OCONEE CO AIRPORT, SC US",2004-12-31,2023-06-14,South Carolina,United States,34.67221,-82.88143,270.8
WBAN:00458,"CLERMONT CO AIRPORT, OH US",2014-07-30,2023-06-14,Ohio,United States,39.07838,-84.21022,256.9
WBAN:04853,"CLEVELAND BURKE LAKEFRONT AIRPORT, OH US",2004-12-31,2023-06-14,Ohio,United States,41.52568,-81.66908,177.5
WBAN:04805,"CLEVELAND CUYAHOGA CO AIRPORT, OH US",2005-03-10,2023-06-14,Ohio,United States,41.56667,-81.48333,267.9
WBAN:14820,"CLEVELAND HOPKINS INTERNATIONAL AIRPORT, OH US",1947-12-31,2023-06-14,Ohio,United States,41.40568,-81.85191,236.8
WBAN:00474,"CLEVELAND MUNICIPAL AIRPORT, MS US",2013-03-17,2023-03-11,Mississippi,United States,33.86113,-90.75788,42.7
WBAN:00378,"CLEVELAND MUNICIPAL AIRPORT, TX US",2014-07-30,2023-06-14,Texas,United States,30.356,-95.008,46
WBAN:03027,"CLINES CORNERS, NM US",2004-12-31,2023-06-14,New Mexico,United States,35.003027,-105.662781,2158
WBAN:00222,"CLINTON MEMORIAL AIRPORT, MO US",2009-05-10,2023-06-14,Missouri,United States,38.35,-93.683,251.2
WBAN:00133,"CLINTON MUNICIPAL AIRPORT, AR US",2007-06-27,2023-06-14,Arkansas,United States,35.6,-92.45,157.3
WBAN:94979,"CLINTON MUNICIPAL AIRPORT, IA US",2004-12-31,2023-06-14,Iowa,United States,41.83333,-90.33333,213.4
WBAN:13999,"CLINTON REGIONAL AIRPORT, OK US",1945-01-31,2023-06-14,Oklahoma,United States,35.53827,-98.93278,492.6
WBAN:03727,"CLINTON SAMPSON CO AIRPORT, NC US",2004-12-31,2023-06-14,North Carolina,United States,34.97556,-78.36444,45.1
WBAN:03932,"CLINTON SHERMAN AIRPORT, OK US",2004-12-31,2023-06-14,Oklahoma,United States,35.35677,-99.20411,584.7
WBAN:54832,"CLINTONVILLE MUNICIPAL AIRPORT, WI US",2005-04-06,2023-06-14,Wisconsin,United States,44.61389,-88.73139,250.5
WBAN:04914,"CLOQUET CARLTON CO AIRPORT, MN US",2004-12-31,2023-06-14,Minnesota,United States,46.7025,-92.50417,389.8
WBAN:53008,"CLOVIS 7 N, NM US",2009-12-12,2014-05-31,New Mexico,United States,34.5119,-103.1744,1315.5
WBAN:23008,"CLOVIS CANNON AFB, NM US",1943-01-24,2023-06-14,New Mexico,United States,34.38333,-103.31667,1309.1
WBAN:23077,"CLOVIS MUNICIPAL AIRPORT, NM US",2004-12-31,2023-06-14,New Mexico,United States,34.43333,-103.08333,1285
WBAN:12868,"COCOA BEACH CAPE KENNEDY AFS, FL US",1950-07-31,2023-06-14,Florida,United States,28.48333,-80.56667,3
WBAN:12867,"COCOA BEACH PATRICK AFB, FL US",1945-02-28,2023-06-14,Florida,United States,28.23333,-80.6,2.4
WBAN:24045,"CODY MUNICIPAL AIRPORT, WY US",2004-12-31,2023-06-14,Wyoming,United States,44.51667,-109.01667,1552
WBAN:24136,"COEUR D ALENE AIR TERMINAL, ID US",2004-12-31,2023-06-14,Idaho,United States,47.76667,-116.81667,703.2
WBAN:93967,"COFFEYVILLE MUNICIPAL AIRPORT, KS US",2004-12-31,2023-06-14,Kansas,United States,37.0912,-95.57258,227.4
WBAN:03037,"COLBY SHALTZ FIELD AIRPORT, KS US",2005-07-20,2023-06-14,Kansas,United States,39.4275,-101.04639,971.1
WBAN:04886,"COLDWATER BRANCH CO MEMORIAL AIRPORT, MI US",2004-12-31,2023-06-14,Michigan,United States,41.93333,-85.0525,292.3
WBAN:00276,"COLEMAN MUNICIPAL AIRPORT, TX US",2010-09-29,2023-06-14,Texas,United States,31.841,-99.404,517.2
WBAN:00358,"COLLEGE PARK AIRPORT, MD US",2006-10-24,2023-06-14,Maryland,United States,38.981,-76.922,15.2
WBAN:03904,"COLLEGE STATION EASTERWOOD FIELD, TX US",1951-07-31,2023-06-14,Texas,United States,30.5912,-96.36309,96
WBAN:53129,"COLORADO CITY MUNICIPAL AIRPORT, AZ US",2014-02-26,2023-06-14,Arizona,United States,36.95972,-113.01389,1485.6
WBAN:53007,"COLORADO SPRINGS 23 NW, CO US",2010-06-29,2014-05-31,Colorado,United States,39.0878,-105.0879,2399.4
WBAN:93037,"COLORADO SPRINGS MUNICIPAL AIRPORT, CO US",1942-08-31,2023-06-14,Colorado,United States,38.80949,-104.68873,1884.2
WBAN:93065,"COLORADO SPRINGS USAF ACADEMY, CO US",1967-11-26,2023-06-14,Colorado,United States,38.96667,-104.81667,2003.1
WBAN:00206,"COLUMBIA AIRPORT, CA US",2009-01-19,2023-06-14,California,United States,38.033,-120.417,646.2
WBAN:13883,"COLUMBIA METROPOLITAN AIRPORT, SC US",1942-04-23,2023-06-14,South Carolina,United States,33.94225,-81.11802,68.3
WBAN:53867,"COLUMBIA OWENS DOWNTOWN AIRPORT, SC US",1999-09-30,2023-06-14,South Carolina,United States,33.97198,-80.99383,54.7
WBAN:03945,"COLUMBIA REGIONAL AIRPORT, MO US",1969-10-31,2023-06-14,Missouri,United States,38.81704,-92.21475,272.2
WBAN:13825,"COLUMBUS AFB, MS US",1942-02-28,2023-06-14,Mississippi,United States,33.65,-88.45,66.8
WBAN:13803,"COLUMBUS BAKALAR MUNICIPAL AIRPORT, IN US",1943-04-30,2023-06-14,Indiana,United States,39.26667,-85.9,199.9
WBAN:63825,"COLUMBUS BOLTON FIELD, OH US",2004-12-31,2023-06-14,Ohio,United States,39.9,-83.13333,275.8
WBAN:93842,"COLUMBUS METROPOLITAN AIRPORT, GA US",1947-12-31,2023-06-14,Georgia,United States,32.51625,-84.94218,120
WBAN:04804,"COLUMBUS OHIO STATE UNIVERSITY AIRPORT, OH US",2004-12-31,2023-06-14,Ohio,United States,40.078406,-83.078332,275
WBAN:13812,"COLUMBUS RICKENBACKER, OH US",1942-07-31,2023-06-14,Ohio,United States,39.81667,-82.93333,226.8
WBAN:94951,"COLUMBUS, NE US",2004-12-31,2023-06-14,Nebraska,United States,41.448,-97.34264,441
WBAN:53997,"COMANCHE CO CITY AIRPORT, TX US",2005-12-31,2023-06-14,Texas,United States,31.91667,-98.60028,423.1
WBAN:23254,"CONCORD BUCHANAN FIELD, CA US",1968-12-31,2023-06-14,California,United States,37.99165,-122.05268,7
WBAN:14745,"CONCORD MUNICIPAL AIRPORT, NH US",1947-12-31,2023-06-14,New Hampshire,United States,43.20488,-71.50257,103.1
WBAN:63801,"CONCORD REGIONAL AIRPORT, NC US",2004-12-31,2023-06-14,North Carolina,United States,35.38963,-80.70735,214.9
WBAN:13984,"CONCORDIA ASOS, KS US",1947-12-31,2023-06-14,Kansas,United States,39.55127,-97.65077,444.3
WBAN:93795,"CONNELLSVILLE AIRPORT, PA US",2021-03-08,2023-06-14,Pennsylvania,United States,39.95889,-79.65694,386.2
WBAN:53902,"CONROE MONTGOMERY CO AIRPORT, TX US",2004-12-31,2023-06-14,Texas,United States,30.36109,-95.41757,69.4
WBAN:94057,"CONVERSE CO AIRPORT ASOS, WY US",2004-12-31,2023-06-14,Wyoming,United States,42.79599,-105.38046,1503
WBAN:00204,"CONWAY HORRY CO AIRPORT, SC US",2009-05-09,2023-06-14,South Carolina,United States,33.828,-79.122,10.1
WBAN:54905,"COOK MUNICIPAL AIRPORT, MN US",2005-04-06,2023-06-14,Minnesota,United States,47.82194,-92.68944,404.5
WBAN:53162,"COOLIDGE 5 W, AZ US",2010-02-26,2014-05-31,Arizona,United States,32.9918,-111.5326,434.3
WBAN:00327,"COOPERSTOWN MUNICIPAL AIRPORT, ND US",2015-09-25,2023-06-14,North Dakota,United States,47.423,-98.106,434
WBAN:04141,"COOS BAY 8 SW, OR US",2008-08-18,2023-06-14,Oregon,United States,43.2718,-124.3186,3.7
WBAN:94899,"COPPER HARBOR, MI US",2004-12-31,2023-06-14,Michigan,United States,47.467386,-87.875032,185
WBAN:00234,"CORNING MUNICIPAL AIRPORT, AR US",2014-07-31,2023-06-14,Arkansas,United States,36.4,-90.65,89
WBAN:53175,"CORONA MUNICIPAL AIRPORT, CA US",2006-09-06,2023-06-14,California,United States,33.89765,-117.60243,162.5
WBAN:12946,"CORPUS CHRISTI CABANISS FIELD NAVAL OUTLYING FIELD, TX US",1949-01-31,2021-09-04,Texas,United States,27.7,-97.43333,9.1
WBAN:12924,"CORPUS CHRISTI INTERNATIONAL AIRPORT, TX US",1946-07-31,2023-06-14,Texas,United States,27.77335,-97.51302,12.5
WBAN:12926,"CORPUS CHRISTI NAS, TX US",1945-02-28,2023-06-14,Texas,United States,27.68786,-97.29158,4.7
WBAN:12973,"CORPUS CHRISTI WALDRON OLF, TX US",1996-07-01,2004-12-30,Texas,United States,27.63116,-97.30979,7
WBAN:53912,"CORSICANA CAMPBELL FIELD, TX US",2004-12-31,2023-06-14,Texas,United States,32.03155,-96.39936,135
WBAN:03061,"CORTEZ 8 SE, CO US",2005-11-01,2023-06-14,Colorado,United States,37.2553,-108.5035,2448.8
WBAN:93069,"CORTEZ MONTEZUMA CO AIRPORT, CO US",2004-12-31,2023-06-14,Colorado,United States,37.30705,-108.62646,1799.2
WBAN:04236,"CORVALLIS 10 SSW, OR US",2006-09-13,2023-06-14,Oregon,United States,44.4185,-123.3257,95.1
WBAN:24202,"CORVALLIS, OR US",2004-12-31,2023-06-14,Oregon,United States,44.5,-123.28333,76.2
WBAN:54851,"COSHOCTON 8 NNE, OH US",2006-11-08,2016-09-18,Ohio,United States,40.3667,-81.7829,341.4
WBAN:12947,"COTULLA LA SALLE CO AIRPORT, TX US",1949-09-30,2023-06-14,Texas,United States,28.45854,-99.22275,144
WBAN:00438,"COULTER FIELD AIRPORT, TX US",2014-07-30,2023-06-14,Texas,United States,30.71569,-96.33136,112.2
WBAN:04908,"COUNCIL BLUFFS MUNICIPAL AIRPORT, IA US",2004-12-31,2023-06-14,Iowa,United States,41.25944,-95.75972,381.9
WBAN:94297,"COUPEVILLE NOLF, WA US",2006-03-23,2015-05-12,Washington,United States,48.21667,-122.63333,60.7
WBAN:63868,"COURTLAND 2 WSW, AL US",2006-05-03,2023-06-14,Alabama,United States,34.6602,-87.3462,175.3
WBAN:00277,"COURTLAND AIRPORT, AL US",1941-12-31,1945-11-29,Alabama,United States,34.659,-87.349,179.2
WBAN:00273,"COVINGTON MUNICIPAL AIRPORT, GA US",1961-12-30,1970-02-04,Georgia,United States,33.632,-83.85,242
WBAN:03099,"CRAIG 30 N, CO US",2010-07-20,2014-05-31,Colorado,United States,40.948,-107.6082,1986.7
WBAN:24046,"CRAIG MOFFAT CO AIRPORT, CO US",2004-12-31,2023-06-14,Colorado,United States,40.49296,-107.52399,1884.9
WBAN:94977,"CRANE LAKE, MN US",2004-12-31,2023-06-14,Minnesota,United States,48.26667,-92.48333,341.1
WBAN:24286,"CRESCENT CITY MCNAMARA AIRPORT, CA US",1949-10-14,2023-06-14,California,United States,41.78361,-124.23796,17
WBAN:04915,"CRESTON MUNICIPAL AIRPORT, IA US",2004-12-31,2023-06-14,Iowa,United States,41.00722,-94.36306,394.4
WBAN:13884,"CRESTVIEW FAA AP, FL US",1947-12-31,2023-06-14,Florida,United States,30.77715,-86.51938,47.1
WBAN:00439,"CRISP CO CORDELE AIRPORT, GA US",2014-07-30,2023-06-14,Georgia,United States,31.98883,-83.77391,94.8
WBAN:03073,"CROCKETT HOUSTON CO AIRPORT, TX US",2005-06-10,2023-06-14,Texas,United States,31.30694,-95.40389,106.1
WBAN:04912,"CROOKSTON MUNICIPAL KIRKWOOD FIELD AIRPORT, MN US",2004-12-31,2023-06-14,Minnesota,United States,47.84167,-96.62139,274
WBAN:00287,"CROSBY MUNICIPAL AIRPORT, ND US",2010-11-17,2023-06-14,North Dakota,United States,48.929,-103.297,594.1
WBAN:12833,"CROSS CITY AIRPORT, FL US",1943-12-18,2023-06-14,Florida,United States,29.63333,-83.10528,11.6
WBAN:63855,"CROSSVILLE 7 NW, TN US",2004-12-02,2023-06-14,Tennessee,United States,36.0138,-85.1345,583.1
WBAN:03847,"CROSSVILLE MEMORIAL AIRPORT, TN US",1954-04-30,2023-06-14,Tennessee,United States,35.95097,-85.08141,568.6
WBAN:23240,"CROWS LANDING, CA US",1973-01-01,1994-03-08,California,United States,37.4,-121.13333,50.3
WBAN:00235,"CRYSTAL RIVER AIRPORT, FL US",2009-08-11,2023-06-14,Florida,United States,28.867,-82.567,3
WBAN:63867,"CULLMAN 3 ENE, AL US",2006-05-03,2023-06-14,Alabama,United States,34.1954,-86.7963,243.8
WBAN:63839,"CULLMAN FOLSOM FIELD AIRPORT, AL US",2004-12-31,2023-06-13,Alabama,United States,34.26889,-86.85833,293.5
WBAN:00440,"CULLMAN REGIONAL AIRPORT FOLSOM FIELD, AL US",2014-07-30,2023-06-14,Alabama,United States,34.26869,-85.85802,295.7
WBAN:93798,"CULPEPER REGIONAL AIRPORT, VA US",2004-12-31,2023-06-14,Virginia,United States,38.52667,-77.85861,96.3
WBAN:00316,"CUMBERLAND MUNICIPAL AIRPORT, WI US",2011-03-08,2023-06-14,Wisconsin,United States,45.506,-91.981,378.3
WBAN:03732,"CUMBERLAND, MD US",2006-04-27,2023-06-14,Maryland,United States,39.6,-78.76667,236.2
WBAN:03737,"CURRITUCK CO AIRPORT, NC US",2004-12-31,2023-06-14,North Carolina,United States,36.39889,-76.01639,4.9
WBAN:53993,"CUSHING MUNICIPAL AIRPORT, OK US",2005-12-31,2023-06-14,Oklahoma,United States,35.95,-96.77306,279.2
WBAN:94032,"CUSTER CO AIRPORT, SD US",2004-12-31,2023-06-14,South Dakota,United States,43.7331,-103.61513,1695.8
WBAN:24137,"CUT BANK AIRPORT, MT US",1942-11-30,2023-06-14,Montana,United States,48.60355,-112.37663,1171.8
WBAN:03927,"DAL FTW WSCMO AIRPORT, TX US",1953-04-30,2023-06-14,Texas,United States,32.89744,-97.02196,165.7
WBAN:93042,"DALHART FAA AIRPORT, TX US",1942-10-31,2023-06-14,Texas,United States,36.02516,-102.54875,1215.5
WBAN:03970,"DALLAS ADDISON AIRPORT, TX US",2005-08-28,2023-06-14,Texas,United States,32.96861,-96.83639,196.3
WBAN:13960,"DALLAS FAA AIRPORT, TX US",1946-07-25,2023-06-14,Texas,United States,32.83839,-96.83583,147.6
WBAN:03985,"DALLAS FORT WORTH SPINKS AIRPORT, TX US",2005-04-06,2023-06-14,Texas,United States,32.565,-97.30806,213.4
WBAN:93901,"DALLAS HENSLEY FIELD NAS, TX US",1941-08-04,1998-01-31,Texas,United States,32.73333,-96.96667,150
WBAN:03971,"DALLAS REDBIRD AIRPORT, TX US",2004-12-31,2023-06-14,Texas,United States,32.67816,-96.86771,200.4
WBAN:24219,"DALLESPORT AIRPORT, WA US",1947-12-31,2023-06-14,Washington,United States,45.61901,-121.16571,71.2
WBAN:53885,"DALTON MUNICIPAL AIRPORT, GA US",2004-12-31,2023-06-14,Georgia,United States,34.72167,-84.86889,216.4
WBAN:54734,"DANBURY MUNICIPAL AIRPORT, CT US",2004-12-31,2023-06-14,Connecticut,United States,41.37215,-73.48337,138
WBAN:94704,"DANSVILLE MUNICIPAL AIRPORT, NY US",1948-12-31,2023-06-14,New York,United States,42.56985,-77.71426,195.9
WBAN:13728,"DANVILLE REGIONAL AIRPORT, VA US",1949-01-31,2023-06-14,Virginia,United States,36.57286,-79.33496,168.2
WBAN:94891,"DANVILLE VERMILION CO AIRPORT, IL US",2004-12-31,2023-06-14,Illinois,United States,40.2,-87.6,202.4
WBAN:00251,"DARKE CO AIRPORT, OH US",2010-03-07,2023-06-14,Ohio,United States,40.204,-84.532,307.2
WBAN:03742,"DARLINGTON CO JETPORT AIRPORT, SC US",2005-04-18,2023-06-14,South Carolina,United States,34.46583,-79.89028,58.5
WBAN:04223,"DARRINGTON 21 NNE, WA US",2003-04-02,2023-06-14,Washington,United States,48.5405,-121.446,124.1
WBAN:94982,"DAVENPORT MUNICIPAL AIRPORT, IA US",2004-12-31,2023-06-14,Iowa,United States,41.61334,-90.59484,227.5
WBAN:00441,"DAVIESS CO AIRPORT, IN US",2013-08-25,2023-06-14,Indiana,United States,38.70042,-87.12973,143.3
WBAN:23109,"DAVIS MONTHAN AFB, AZ US",1941-07-16,2023-06-14,Arizona,United States,32.16667,-110.88333,824.2
WBAN:93728,"DAVISON ARMY AIR FIELD, VA US",1957-01-31,2023-06-14,Virginia,United States,38.71667,-77.18333,22.3
WBAN:93815,"DAYTON INTERNATIONAL AIRPORT, OH US",1947-12-31,2023-06-14,Ohio,United States,39.90638,-84.21853,302.6
WBAN:53859,"DAYTON WRIGHT BROTHERS AIRPORT, OH US",2004-12-31,2023-06-14,Ohio,United States,39.5918,-84.2263,290.4
WBAN:13840,"DAYTON WRIGHT PATTERSON AFB, OH US",1936-04-30,2023-06-14,Ohio,United States,39.83333,-84.05,249.9
WBAN:12834,"DAYTONA BEACH INTERNATIONAL AIRPORT, FL US",1947-12-31,2023-06-14,Florida,United States,29.17351,-81.07185,7.9
WBAN:00167,"DE KALB CO AIRPORT, IN US",2008-12-31,2023-06-14,Indiana,United States,41.3,-85.067,268.2
WBAN:04871,"DE KALB TAYLOR MUNICIPAL AIRPORT, IL US",2004-12-31,2023-06-14,Illinois,United States,41.93167,-88.70806,278.9
WBAN:53925,"DE QUEEN SEVIER CO AIRPORT, AR US",2003-12-31,2023-06-14,Arkansas,United States,34.04799,-94.40157,106.6
WBAN:00423,"DE QUINCY INDUSTRIAL AIRPARK, LA US",2014-07-30,2023-06-14,Louisiana,United States,30.44105,-93.47361,25.6
WBAN:03976,"DE RIDDER BEAUREGARD PARISH AIRPORT, LA US",2005-12-31,2023-06-14,Louisiana,United States,30.83333,-93.33333,62.2
WBAN:53186,"DEATH VALLEY NATIONAL PARK, CA US",2022-08-04,2023-03-23,California,United States,36.46263,-116.8672,-59.1
WBAN:03887,"DECATUR AIRPORT, IL US",2004-12-31,2023-06-14,Illinois,United States,39.83079,-88.87192,205.1
WBAN:53964,"DECATUR MUNICIPAL AIRPORT, TX US",2004-12-31,2023-06-14,Texas,United States,33.25444,-97.58056,319.1
WBAN:53852,"DECATUR PRYOR FIELD, AL US",2004-12-31,2023-06-14,Alabama,United States,34.65798,-86.94343,179.1
WBAN:04916,"DECORAH MUNICIPAL AIRPORT, IA US",2004-12-31,2023-06-14,Iowa,United States,43.27528,-91.73917,352.7
WBAN:94119,"DEER PARK AIRPORT, WA US",2004-12-31,2023-06-14,Washington,United States,47.97416,-117.42921,672
WBAN:04851,"DEFIANCE AIRPORT, OH US",2004-12-31,2023-06-14,Ohio,United States,41.3357,-84.4285,215
WBAN:22010,"DEL RIO INTERNATIONAL AIRPORT, TX US",1951-04-30,2023-06-14,Texas,United States,29.3784,-100.92704,305.7
WBAN:22001,"DEL RIO LAUGHLIN AFB, TX US",1943-02-16,2023-06-14,Texas,United States,29.36667,-100.78333,329.8
WBAN:00299,"DELAND MUNICIPAL AIRPORT SYDNEY H TAYLOR FIELD, FL US",2012-02-08,2023-06-14,Florida,United States,29.067,-81.283,24.1
WBAN:00315,"DELAWARE MUNICIPAL JIM MOORE FIELD AIRPORT, OH US",2011-03-14,2023-06-14,Ohio,United States,40.28,-83.115,288
WBAN:53165,"DELTA 4 NE, UT US",2010-07-31,2014-05-31,Utah,United States,39.3872,-112.5095,1451.2
WBAN:23162,"DELTA FAA AIRPORT, UT US",1948-10-31,2023-06-14,Utah,United States,39.38333,-112.51667,1450.5
WBAN:23078,"DEMING MUNICIPAL AIRPORT, NM US",2004-12-31,2023-06-14,New Mexico,United States,32.25923,-107.72056,1311.6
WBAN:00445,"DEMOPOLIS MUNICIPAL AIRPORT, AL US",2014-07-30,2023-06-14,Alabama,United States,32.46383,-87.95405,34.1
WBAN:04139,"DENIO 52 WSW, NV US",2008-06-15,2023-05-31,Nevada,United States,41.8484,-119.6357,1981.2
WBAN:04917,"DENISON MUNICIPAL AIRPORT, IA US",2004-12-31,2023-06-14,Iowa,United States,41.98639,-95.38056,388.9
WBAN:03991,"DENTON MUNICPAL AIRPORT, TX US",2004-12-31,2023-06-14,Texas,United States,33.20883,-97.19922,194.6
WBAN:93067,"DENVER CENTENNIAL AIRPORT, CO US",2004-12-31,2023-06-14,Colorado,United States,39.5599,-104.84843,1789.2
WBAN:03017,"DENVER INTERNATIONAL AIRPORT, CO US",1974-11-12,2023-06-14,Colorado,United States,39.84657,-104.65623,1647.2
WBAN:54902,"DES MOINES 17 E, IA US",2004-09-14,2023-06-14,Iowa,United States,41.5562,-93.2855,280.7
WBAN:14933,"DES MOINES INTERNATIONAL AIRPORT, IA US",1944-12-31,2023-06-14,Iowa,United States,41.53395,-93.65313,286.3
WBAN:03104,"DESERT RESORTS REGIONAL AIRPORT, CA US",1943-07-11,2023-06-14,California,United States,33.63166,-116.16412,-36
WBAN:03160,"DESERT ROCK AIRPORT, NV US",1978-05-14,2023-06-14,Nevada,United States,36.6206,-116.0278,984.5
WBAN:53853,"DESTIN FORT WALTON BEACH AIRPORT, FL US",2004-12-31,2023-06-14,Florida,United States,30.39333,-86.46738,5.4
WBAN:14822,"DETROIT CITY AIRPORT, MI US",1947-12-31,2023-06-14,Michigan,United States,42.40725,-83.00899,189.8
WBAN:94962,"DETROIT LAKES, MN US",2004-12-31,2023-06-14,Minnesota,United States,46.83333,-95.88333,425.8
WBAN:94847,"DETROIT METRO AIRPORT, MI US",1942-07-31,2023-06-14,Michigan,United States,42.23113,-83.33121,191.9
WBAN:14853,"DETROIT WILLOW RUN AIRPORT, MI US",1947-12-31,2023-06-14,Michigan,United States,42.23666,-83.52638,215.7
WBAN:94928,"DEVILS LAKE MUNICIPAL AIRPORT, ND US",2004-12-31,2023-06-14,North Dakota,United States,48.11667,-98.9,439.2
WBAN:00428,"DEXTER B FLORENCE MEMORIAL FIELD AIRPORT, AR US",2013-04-30,2023-06-14,Arkansas,United States,34.0998,-93.066,55.8
WBAN:00100,"DEXTER B FLORENCE MEMORIAL FIELD AIRPORT, AR US",2012-09-24,2012-11-22,Arkansas,United States,34.09972,-93.06583,55.5
WBAN:24012,"DICKINSON THEODORE ROOSEVELT REGIONAL AIRPORT, ND US",1948-11-30,2023-06-14,North Dakota,United States,46.79968,-102.79715,787.4
WBAN:04137,"DILLON 18 WSW, MT US",2007-07-27,2023-06-14,Montana,United States,45.158,-113.0057,1820
WBAN:24138,"DILLON AIRPORT, MT US",1947-12-31,2023-06-14,Montana,United States,45.2584,-112.55454,1584.7
WBAN:94082,"DINOSAUR 2 E, CO US",2004-07-20,2023-06-14,Colorado,United States,40.2446,-108.9677,1847.7
WBAN:00444,"DIXON AIRPORT, WY US",2013-07-30,2023-06-14,Wyoming,United States,41.03744,-107.49252,1996.1
WBAN:04978,"DODGE CENTER AIRPORT, MN US",2004-12-31,2023-06-14,Minnesota,United States,44.01778,-92.83139,397.8
WBAN:13985,"DODGE CITY REGIONAL AIRPORT, KS US",1943-04-18,2023-06-14,Kansas,United States,37.77105,-99.96915,785.6
WBAN:03053,"DONA ANA CO AIRPORT AT SANTA TERESA, NM US",2005-11-01,2006-11-14,New Mexico,United States,31.88333,-106.71722,1253.3
WBAN:13839,"DOTHAN REGIONAL AIRPORT, AL US",2004-12-31,2023-06-14,Alabama,United States,31.31767,-85.44324,112.1
WBAN:93026,"DOUGLAS BISBEE INTERNATIONAL AIRPORT, AZ US",1942-11-15,2023-06-13,Arizona,Mexico,31.4583,-109.6061,1251.2
WBAN:63842,"DOUGLAS MUNICIPAL AIRPORT, GA US",2004-12-31,2023-06-14,Georgia,United States,31.47667,-82.86056,78.3
WBAN:13707,"DOVER AFB, DE US",1942-11-30,2023-06-14,Delaware,United States,39.13333,-75.46667,8.5
WBAN:13782,"DOWNTOWN CHARLESTON, SC US",2004-12-31,2023-06-13,South Carolina,United States,32.775,-79.9239,3
WBAN:54786,"DOYLESTOWN AIRPORT, PA US",2004-12-31,2023-06-14,Pennsylvania,United States,40.33015,-75.12284,120.5
WBAN:04135,"DRIGGS REED MEMORIAL AIRPORT, ID US",2006-10-23,2023-06-14,Idaho,United States,43.7425,-111.0975,1898.6
WBAN:24139,"DRUMMOND AVIATION, MT US",1947-12-31,2012-09-29,Montana,United States,46.6383,-113.1761,1219.2
WBAN:54844,"DRUMMOND ISLAND AIRPORT, MI US",2006-08-30,2023-06-14,Michigan,United States,46.00722,-83.74278,202.7
WBAN:03032,"DRYDEN TERRELL CO AIRPORT, TX US",2004-12-31,2023-06-14,Texas,United States,30.048172,-102.21266,701
WBAN:63881,"DUBLIN MUNICIPAL AIRPORT, GA US",2005-12-31,2023-06-14,Georgia,United States,32.56444,-82.98528,94.2
WBAN:00443,"DUBOIS MUNICIPAL AIRPORT, WY US",2013-05-13,2023-06-14,Wyoming,United States,43.54836,-109.69025,2224.1
WBAN:04787,"DUBOIS REGIONAL AIRPORT, PA US",1972-12-31,2023-06-14,Pennsylvania,United States,41.17947,-78.89326,550.4
WBAN:94908,"DUBUQUE REGIONAL AIRPORT, IA US",1951-01-31,2023-06-14,Iowa,United States,42.39834,-90.70913,316.9
WBAN:24103,"DUGWAY PROVING GROUNDS, UT US",2005-02-23,2023-06-13,Utah,United States,40.18333,-112.93333,1325.6
WBAN:03844,"DUKE FIELD AAFB, FL US",1949-09-07,2023-06-13,Florida,United States,30.65,-86.53333,57.9
WBAN:03075,"DULCE 1 NW, NM US",2009-07-11,2011-03-03,New Mexico,United States,36.9352,-107.0003,2074.5
WBAN:14913,"DULUTH INTERNATIONAL AIRPORT, MN US",1947-12-31,2023-06-14,Minnesota,United States,46.8436,-92.18658,433.4
WBAN:04919,"DULUTH SKY HARBOR AIRPORT, MN US",2004-12-31,2023-06-14,Minnesota,United States,46.72167,-92.04333,185.9
WBAN:03070,"DUMAS MOORE CO AIRPORT, TX US",2005-12-31,2023-06-14,Texas,United States,35.85806,-102.01306,1129.3
WBAN:14747,"DUNKIRK CHAUTAUQUA CO AIRPORT, NY US",1948-12-31,2023-06-14,New York,United States,42.4932,-79.27623,203.9
WBAN:00298,"DUPONT LAPEER AIRPORT, MI US",2012-12-31,2023-06-14,Michigan,United States,43.067,-83.267,254.2
WBAN:93005,"DURANGO LA PLATA CO AIRPORT, CO US",2004-12-31,2023-06-14,Colorado,United States,37.1431,-107.76023,2020.6
WBAN:53937,"DURANT EAKER FIELD AIRPORT, OK US",2004-12-31,2023-06-14,Oklahoma,United States,33.94222,-96.39444,212.8
WBAN:03758,"DURHAM 11 W, NC US",2007-03-28,2023-06-14,North Carolina,United States,35.9705,-79.0931,171.3
WBAN:54794,"DURHAM 2 N, NH US",2001-12-15,2023-06-14,New Hampshire,United States,43.1716,-70.9277,36.3
WBAN:54795,"DURHAM 2 SSW, NH US",2001-12-15,2023-06-14,New Hampshire,United States,43.1092,-70.9484,19.2
WBAN:03809,"DYERSBURG MUNICIPAL AIRPORT, TN US",1943-04-11,2023-06-14,Tennessee,United States,36.0002,-89.4094,91.4
WBAN:03078,"EADS 16 ENE, CO US",2009-06-18,2014-05-31,Colorado,United States,38.5443,-102.5025,1209.1
WBAN:03098,"EAGLE 13 SSE, CO US",2010-07-17,2014-05-31,Colorado,United States,39.4827,-106.7337,2622.8
WBAN:23063,"EAGLE CO AIRPORT, CO US",1947-12-31,2023-06-14,Colorado,United States,39.65,-106.91667,1980.3
WBAN:00480,"EAGLE RANGE WEATHER SERVICE OFFICE, UT US",2014-07-30,2022-06-30,Utah,United States,41.05,-113.06,1292
WBAN:54838,"EAGLE RIVER UNION AIRPORT, WI US",2005-05-04,2023-06-05,Wisconsin,United States,45.93167,-89.26889,500.5
WBAN:63835,"EARLY CO AIRPORT BLAKELY, GA US",2005-12-31,2023-06-14,Georgia,United States,31.39694,-84.89528,65.2
WBAN:00246,EAST BREAKS OIL PLATFORM,2009-12-28,2022-04-15,null,null,27.817,-94.317,224
WBAN:00254,EAST CAMERON 278 OIL PLATFORM,2010-05-02,2018-09-18,null,null,28.433,-92.883,224
WBAN:00305,EAST CAMERON 47 OIL PLATFORM,2011-01-12,2012-08-02,null,null,29.433,-92.983,29.3
WBAN:00330,"EAST GEORGIA REGIONAL AIRPORT, GA US",2011-07-03,2023-06-14,Georgia,United States,32.609,-82.37,100.3
WBAN:64761,"EAST HAMPTON AIRPORT, NY US",2005-08-29,2023-06-13,New York,United States,40.95956,-72.25183,17.1
WBAN:03756,"EASTON NEWMAN FIELD AIRPORT, MD US",2006-04-27,2023-06-14,Maryland,United States,38.80417,-76.06889,21.9
WBAN:03858,"EASTOVER MCENTIRE ANG, SC US",1959-02-05,2023-06-14,South Carolina,United States,33.96667,-80.8,77.4
WBAN:04224,"EASTSOUND ORCAS ISLAND AIRPORT, WA US",2004-12-31,2023-06-14,Washington,United States,48.70833,-122.91056,9.4
WBAN:03703,"EDENTON NORTHEAST REGIONAL AIRPORT, NC US",2004-12-31,2023-06-14,North Carolina,United States,36.0275,-76.56694,6.1
WBAN:12987,"EDINBURG 17 NNE, TX US",2004-02-18,2023-06-14,Texas,United States,26.5258,-98.0633,19.5
WBAN:12983,"EDINBURG INTERNATIONAL AIRPORT, TX US",2004-12-31,2023-06-14,Texas,United States,26.44194,-98.12944,24.4
WBAN:53144,"EDWARDS AFB NORTH AUXILIARY AIRFIELD, CA US",2005-12-31,2023-06-14,California,United States,34.98833,-117.86472,695.9
WBAN:23114,"EDWARDS AFB, CA US",1941-11-30,2023-06-14,California,United States,34.9,-117.86667,704.4
WBAN:93816,"EFFINGHAM CO MEMORIAL AIRPORT, IL US",1948-11-30,2023-06-14,Illinois,United States,39.07028,-88.53333,178.9
WBAN:23199,"EL CENTRO NAF, CA US",1945-01-31,2023-06-14,California,United States,32.83241,-115.66377,-14.1
WBAN:93992,"EL DORADO GOODWIN FIELD, AR US",1949-07-05,2023-06-14,Arkansas,United States,33.22072,-92.81404,78
WBAN:03165,"EL MONTE EMSU, CA US",2005-02-23,2023-06-13,California,United States,34.08333,-118.03333,90.2
WBAN:23044,"EL PASO INTERNATIONAL AIRPORT, TX US",1941-03-31,2023-06-14,Texas,United States,31.81234,-106.37737,1202.1
WBAN:53999,"EL RENO REGIONAL AIRPORT, OK US",2005-08-16,2023-06-13,Oklahoma,United States,35.47278,-98.00583,431.9
WBAN:93101,"EL TORO MCAS, CA US",1945-02-28,1999-06-30,California,United States,33.66667,-117.73333,117
WBAN:63834,"ELBERT CO AIRPORT PATZ FIELD, GA US",2004-12-31,2023-06-13,Georgia,United States,34.095,-82.81583,183.8
WBAN:00182,"ELBOW LAKE MUNICIPAL PRIDE OF THE PRAIRIE AIRPORT, MN US",2014-07-30,2023-06-14,Minnesota,United States,45.986,-95.992,367.3
WBAN:53132,"ELGIN 5 S, AZ US",2002-09-14,2023-06-14,Arizona,United States,31.5907,-110.5087,1466.4
WBAN:13786,"ELIZABETH CITY COAST GUARD AIR STATION, NC US",1948-12-31,2023-06-14,North Carolina,United States,36.25771,-76.1716,1.7
WBAN:00210,"ELIZABETHTON MUNICIPAL AIRPORT, TN US",2014-07-30,2023-06-14,Tennessee,United States,36.367,-82.167,486.2
WBAN:03705,"ELIZABETHTOWN AIRPORT, NC US",2004-12-31,2023-06-14,North Carolina,United States,34.60167,-78.57806,40.5
WBAN:03977,"ELK CITY MUNICIPAL AIRPORT, OK US",2014-05-29,2023-06-14,Oklahoma,United States,35.43333,-99.4,610.2
WBAN:04806,"ELKHART MUNICIPAL AIRPORT, IN US",2005-02-23,2023-06-14,Indiana,United States,41.71667,-85.98333,237.1
WBAN:93076,"ELKHART, KS US",2004-12-31,2023-06-14,Kansas,United States,37,-101.88333,1105.8
WBAN:03733,"ELKINS 21 ENE, WV US",2003-11-16,2023-06-14,West Virginia,United States,39.013,-79.4743,1033.3
WBAN:13729,"ELKINS RANDOLPH CO AIRPORT, WV US",1947-12-31,2023-06-14,West Virginia,United States,38.8899,-79.85544,595.7
WBAN:24121,"ELKO REGIONAL AIRPORT, NV US",1947-12-31,2023-06-14,Nevada,United States,40.82402,-115.78635,1540.5
WBAN:24220,"ELLENSBURG BOWERS FIELD, WA US",1948-05-31,2023-06-14,Washington,United States,47.03376,-120.53135,532.5
WBAN:24006,"ELLSWORTH AFB, SD US",1939-01-31,2023-06-14,South Dakota,United States,44.15,-103.1,999.1
WBAN:14748,"ELMIRA CORNING REGIONAL AIRPORT, NY US",1949-01-31,2023-06-14,New York,United States,42.15658,-76.90291,285.3
WBAN:23154,"ELY AIRPORT, NV US",1953-01-19,2023-06-14,Nevada,United States,39.29537,-114.84666,1904.9
WBAN:94964,"ELY MUNICIPAL AIRPORT, MN US",2004-12-31,2023-06-14,Minnesota,United States,47.81667,-91.83333,443.8
WBAN:04849,"ELYRIA LORAIN CO AIRPORT, OH US",2004-12-31,2023-06-14,Ohio,United States,41.34628,-82.17885,241
WBAN:13989,"EMPORIA ASOS, KS US",1950-10-31,2023-06-14,Kansas,United States,38.32906,-96.19453,366.3
WBAN:03704,"EMPORIA GREENSVILLE REGIONAL AIRPORT, VA US",2004-12-31,2023-06-14,Virginia,United States,36.68667,-77.48278,38.7
WBAN:13909,"ENID VANCE AFB, OK US",2005-02-23,2023-06-14,Oklahoma,United States,36.33333,-97.91667,398.1
WBAN:53986,"ENID WOODRING AIRPORT, OK US",2005-05-05,2023-06-14,Oklahoma,United States,36.38333,-97.8,355.7
WBAN:24141,"EPHRATA AIRPORT, WA US",1941-12-31,2023-06-14,Washington,United States,47.30777,-119.51551,382.1
WBAN:14860,"ERIE INTERNATIONAL AIRPORT, PA US",1947-12-31,2023-06-14,Pennsylvania,United States,42.08026,-80.18236,222.2
WBAN:00161,"ERIE MUNICIPAL AIRPORT, CO US",2014-06-30,2023-06-14,Colorado,United States,40.017,-105.05,1564.2
WBAN:03712,"ERWIN HARNETT CO AIRPORT, NC US",2004-12-31,2023-06-14,North Carolina,United States,35.37861,-78.73361,60.4
WBAN:94853,"ESCANABA DELTA CO AIRPORT, MI US",2004-12-31,2023-06-14,Michigan,United States,45.73333,-87.08333,181.1
WBAN:94971,"ESTHERVILLE MUNICIPAL AIRPORT, IA US",2004-12-31,2023-06-14,Iowa,United States,43.40085,-94.74765,400.6
WBAN:63872,"EUFAULA WEEDON FIELD AIRPORT, AL US",2006-08-31,2023-06-14,Alabama,United States,31.95163,-85.13122,86.8
WBAN:00304,EUGENE ISLAND OIL PLATFORM,2011-01-12,2021-09-10,null,null,28.633,-91.483,28
WBAN:24221,"EUGENE MAHLON SWEET FIELD, OR US",1947-12-31,2023-06-14,Oregon,United States,44.13311,-123.21563,109
WBAN:03170,"EUREKA AIRPORT, NV US",2004-12-31,2023-06-14,Nevada,United States,39.6013,-116.0055,1809.3
WBAN:00170,"EUREKA AIRPORT, NV US",2014-08-05,2023-06-14,Nevada,United States,39.6,-116,1815.1
WBAN:24213,"EUREKA WEATHER FORECAST OFFICE WOODLEY ISLAND, CA US",2004-12-31,2023-06-13,California,United States,40.8097,-124.1602,6.1
WBAN:04111,"EVANSTON UINTA CO BURNS FIELD, WY US",1972-12-31,2023-06-14,Wyoming,United States,41.27269,-111.03056,2175.9
WBAN:93817,"EVANSVILLE REGIONAL AIRPORT, IN US",1947-12-31,2023-06-14,Indiana,United States,38.05015,-87.51465,122.5
WBAN:04923,"EVELETH VIRGINIA MUNICIPAL AIRPORT, MN US",2004-12-31,2023-06-14,Minnesota,United States,47.42417,-92.4975,420.3
WBAN:24222,"EVERETT SNOHOMISH CO AIRPORT, WA US",2004-12-31,2023-06-14,Washington,United States,47.92322,-122.28308,167.1
WBAN:92826,"EVERGLADES CITY 5 NE, FL US",2007-02-09,2023-06-14,Florida,United States,25.8996,-81.3183,1.2
WBAN:53820,"EVERGREEN MIDDLETON FIELD, AL US",2004-12-31,2023-06-13,Alabama,United States,31.41912,-87.04844,79.1
WBAN:24114,"FAIRCHILD AFB, WA US",1940-03-31,2023-06-14,Washington,United States,47.63333,-117.65,750.1
WBAN:00220,"FAIRFIELD CO AIRPORT, SC US",2009-04-20,2023-06-14,South Carolina,United States,34.315,-81.109,176.2
WBAN:04925,"FAIRFIELD MUNICIPAL AIRPORT, IA US",2004-12-31,2023-06-14,Iowa,United States,41.05306,-91.97889,243.5
WBAN:53891,"FAIRFIELD MUNICIPAL AIRPORT, IL US",2004-12-31,2023-06-14,Illinois,United States,38.37861,-88.4125,132.9
WBAN:63869,"FAIRHOPE 3 NE, AL US",2006-07-12,2023-06-14,Alabama,United States,30.5485,-87.8757,29
WBAN:94948,"FAIRMONT MUNICIPAL AIRPORT, MN US",2004-12-31,2023-06-14,Minnesota,United States,43.65,-94.41667,353.9
WBAN:94056,"FAITH MUNICIPAL AIRPORT, SD US",2004-12-31,2023-06-14,South Dakota,United States,45.032601,-102.01999,784
WBAN:00270,"FAITH RANCH AIRPORT, TX US",2010-06-29,2023-06-14,Texas,United States,28.209,-100.019,236.2
WBAN:12982,"FALFURRIAS BROOKS CO AIRPORT, TX US",2004-12-31,2023-06-14,Texas,United States,27.20667,-98.12111,34.1
WBAN:53151,"FALLBROOK 5 NE, CA US",2008-04-29,2023-06-14,California,United States,33.4392,-117.1904,347.5
WBAN:93102,"FALLON NAAS, NV US",1945-02-28,2023-06-14,Nevada,United States,39.41667,-118.71667,1199.1
WBAN:94957,"FALLS CITY BRENNER FIELD, NE US",1999-12-31,2023-06-14,Nebraska,United States,40.07912,-95.58928,298.8
WBAN:14704,"FALMOUTH OTIS AFB, MA US",2005-02-23,2023-06-14,Massachusetts,United States,41.65,-70.51667,39.6
WBAN:00457,"FALSE RIVER REGIONAL AIRPORT, LA US",2011-12-20,2023-06-09,Louisiana,United States,30.7183,-91.4786,12.2
WBAN:14914,"FARGO HECTOR INTERNATIONAL AIRPORT, ND US",1947-12-31,2023-06-14,North Dakota,United States,46.92424,-96.81186,272.8
WBAN:94969,"FARIBAULT MUNICIPAL AIRPORT, MN US",2004-12-31,2023-06-14,Minnesota,United States,44.33333,-93.31667,323.1
WBAN:54787,"FARMINGDALE REPUBLIC AIRPORT, NY US",2004-12-31,2023-06-14,New York,United States,40.73443,-73.41637,22.8
WBAN:23090,"FARMINGTON FOUR CORNERS REGIONAL AIRPORT, NM US",1948-12-31,2023-06-14,New Mexico,United States,36.74354,-108.22931,1676.2
WBAN:93996,"FARMINGTON REGIONAL AIRPORT, MO US",1949-12-31,2023-06-14,Missouri,United States,37.76083,-90.42833,288.6
WBAN:03707,"FARMVILLE REGIONAL AIRPORT, VA US",2004-12-31,2023-06-12,Virginia,United States,37.3575,-78.43778,127.1
WBAN:12978,"FAYETTE REGIONAL AIR CENTER AIRPORT, TX US",2004-12-31,2023-06-14,Texas,United States,29.90778,-96.95,98.8
WBAN:93993,"FAYETTEVILLE DRAKE FIELD, AR US",1949-07-13,2023-06-14,Arkansas,United States,36.01027,-94.16824,377.1
WBAN:13714,"FAYETTEVILLE POPE AFB, NC US",1937-07-02,2023-06-14,North Carolina,United States,35.17389,-79.00889,66.4
WBAN:93740,"FAYETTEVILLE REGIONAL AIRPORT GRANNIS FIELD, NC US",2004-12-31,2023-06-14,North Carolina,United States,34.98953,-78.88004,56.7
WBAN:53922,"FAYETTEVILLE SPRINGDALE NW AR REGL AIRPORT, AR US",2004-12-31,2023-06-14,Arkansas,United States,36.28975,-94.31152,389.6
WBAN:13762,"FENTRESS NAVAL AUXILIARY FIELD, VA US",1945-02-28,2023-06-14,Virginia,United States,36.700723,-76.129413,3
WBAN:94966,"FERGUS FALLS AIRPORT, MN US",2004-12-31,2023-06-14,Minnesota,United States,46.28333,-96.15,360.6
WBAN:00326,"FERNANDINA BEACH MUNICIPAL AIRPORT, FL US",2011-05-11,2023-06-14,Florida,United States,30.617,-81.467,5.2
WBAN:00237,"FIELD OF DREAMS AIRPORT, MN US",2014-07-30,2023-06-13,Minnesota,United States,46.023,-92.895,311.2
WBAN:14825,"FINDLAY AIRPORT, OH US",1948-11-30,2023-06-14,Ohio,United States,41.01369,-83.66814,246.5
WBAN:04780,"FITCHBURG MUNICIPAL AIRPORT, MA US",1954-12-31,2023-06-14,Massachusetts,United States,42.55495,-71.75699,102.3
WBAN:00350,"FITZGERALD MUNICIPAL AIRPORT, GA US",2012-06-19,2023-06-14,Georgia,United States,31.684,-83.27,111.3
WBAN:04926,"FLAG ISLAND AIRPORT, MN US",2004-12-31,2023-06-14,Minnesota,United States,49.31833,-94.90278,329.2
WBAN:00485,"FLAGLER CO EXECUTIVE AIRPORT, FL US",2009-11-02,2023-06-14,Florida,United States,29.46738,-81.20633,10.1
WBAN:03103,"FLAGSTAFF AIRPORT, AZ US",1947-12-31,2023-06-14,Arizona,United States,35.14427,-111.66637,2133.3
WBAN:00314,"FLETCHER FIELD AIRPORT, MS US",2011-03-10,2023-06-13,Mississippi,United States,34.3,-90.512,53
WBAN:14826,"FLINT FCWOS, MI US",1948-11-30,2023-06-14,Michigan,United States,42.96684,-83.74996,234.8
WBAN:03918,"FLIPPIN MARION CO REGIONAL AIRPORT, AR US",1951-06-30,2023-06-14,Arkansas,United States,36.29083,-92.59,219.2
WBAN:53889,"FLORA MUNICIPAL AIRPORT, IL US",2004-12-31,2023-06-14,Illinois,United States,38.66472,-88.45278,143.9
WBAN:63870,"FLORALA MUNICIPAL AIRPORT, AL US",2006-05-10,2023-06-14,Alabama,United States,31.04474,-86.31193,91
WBAN:13744,"FLORENCE REGIONAL AIRPORT, SC US",1947-12-31,2023-06-14,South Carolina,United States,34.18773,-79.73079,43
WBAN:04840,"FOND DU LAC CO AIRPORT, WI US",1998-12-31,2023-06-14,Wisconsin,United States,43.76951,-88.49076,242.5
WBAN:54940,"FOREST CITY MUNICIPAL AIRPORT, IA US",2009-07-13,2023-06-14,Iowa,United States,43.23475,-93.6241,374.6
WBAN:13829,"FORT BENNING LAWSON FIELD, GA US",1939-04-30,2023-06-14,Georgia,United States,32.337322,-84.991283,70.7
WBAN:93747,"FORT BRAGG MACKALL ARMY AIR FIELD, NC US",2005-04-19,2023-06-14,North Carolina,United States,35.03333,-79.5,114.6
WBAN:93737,"FORT BRAGG SIMMONS ARMY AIR FIELD, NC US",1961-06-30,2023-06-14,North Carolina,United States,35.13333,-78.93333,74.4
WBAN:00449,"FORT BRIDGER AIRPORT, WY US",2013-07-31,2023-06-14,Wyoming,United States,41.39333,-110.40597,2145.5
WBAN:13806,"FORT CAMPBELL ARMY AIR FIELD, KY US",1943-07-14,2023-06-14,Kentucky,United States,36.66667,-87.48333,174.7
WBAN:94015,"FORT CARSON BUTTS ARMY AIR FIELD, CO US",1966-09-14,2023-06-14,Colorado,United States,38.67833,-104.75667,1779.4
WBAN:94035,"FORT COLLINS LOVELAND AIRPORT, CO US",2005-12-31,2023-06-14,Colorado,United States,40.45,-105.01667,1526.7
WBAN:94933,"FORT DODGE OZARK AIRLINES, IA US",2004-12-31,2023-06-14,Iowa,United States,42.55,-94.18333,352.3
WBAN:93735,"FORT EUSTIS FELKER ARMY AIR FIELD, VA US",1960-10-31,2023-06-14,Virginia,United States,37.13333,-76.6,3.7
WBAN:03933,"FORT HOOD, TX US",1960-10-31,2023-06-14,Texas,United States,31.13333,-97.71667,281.6
WBAN:53146,"FORT HUACHUCA PIONEER AIRFIELD, AZ US",2008-08-06,2023-06-14,Arizona,United States,31.60563,-110.42809,1445.4
WBAN:03124,"FORT HUACHUCA SIERRA VISTA MUNICIPAL AIRPORT, AZ US",1954-10-10,2023-06-14,Arizona,United States,31.58833,-110.34417,1438.4
WBAN:13807,"FORT KNOX GODMAN ARMY AIR FIELD, KY US",1945-02-28,2023-06-14,Kentucky,United States,37.9,-85.96667,239
WBAN:12885,"FORT LAUDERDALE EXECUTIVE AIRPORT, FL US",2004-12-31,2023-06-14,Florida,United States,26.19905,-80.17764,3.5
WBAN:12849,"FORT LAUDERDALE INTERNATIONAL AIRPORT, FL US",1945-12-31,2023-06-14,Florida,United States,26.07875,-80.16223,1
WBAN:04930,"FORT MADISON MUNICIPAL AIRPORT, IA US",2004-12-31,2023-06-14,Iowa,United States,40.65917,-91.32667,220.7
WBAN:00162,"FORT MORGAN MUNICIPAL AIRPORT, CO US",2012-07-25,2023-06-14,Colorado,United States,40.333,-103.8,1393.2
WBAN:12835,"FORT MYERS PAGE FIELD AIRPORT, FL US",1942-12-31,2023-06-14,Florida,United States,26.58495,-81.86146,3.8
WBAN:12894,"FORT MYERS SW FLORIDA REGIONAL AIRPORT, FL US",2004-12-31,2023-06-14,Florida,United States,26.53805,-81.75674,8.2
WBAN:63847,"FORT PAYNE ISBELL FIELD, AL US",2004-12-31,2023-06-14,Alabama,United States,34.47389,-85.72139,267.3
WBAN:12895,"FORT PIERCE ST LUCIE CO INTERNATIONAL AIRPORT, FL US",2004-12-31,2023-06-14,Florida,United States,27.49816,-80.37626,5.7
WBAN:03931,"FORT POLK ARMY AIR FIELD, LA US",1957-10-31,2023-06-14,Louisiana,United States,31.05,-93.18333,100.6
WBAN:53988,"FORT POLK FULLERTON LANDING STRIP, LA US",2005-12-31,2023-06-14,Louisiana,United States,31.0217,-92.9107,94.5
WBAN:63903,"FORT POLK SELF STRIP, LA US",2005-03-02,2013-05-01,Louisiana,United States,31.1136,-92.9656,114
WBAN:13947,"FORT RILEY MARSHALL ARMY AIR FIELD, KS US",1938-08-16,2023-06-14,Kansas,United States,39.05,-96.76667,324.6
WBAN:53989,"FORT RILEY MULTIPLE PURPOSE RANGE, KS US",2006-05-31,2017-01-09,Kansas,United States,39.29417,-96.92639,385.3
WBAN:53861,"FORT RUCKER LOWE ARMY HELIPORT, AL US",2008-07-16,2023-06-14,Alabama,United States,31.35583,-85.75111,74.4
WBAN:13945,"FORT SILL POST FIELD AF, OK US",1939-08-31,2023-06-14,Oklahoma,United States,34.65,-98.4,362.4
WBAN:13964,"FORT SMITH REGIONAL AIRPORT, AR US",1946-12-31,2023-06-14,Arkansas,United States,35.33346,-94.36526,136.7
WBAN:03875,"FORT STEWART WRIGHT, GA US",2005-02-23,2023-06-14,Georgia,United States,31.88333,-81.56667,13.7
WBAN:23091,"FORT STOCKTON PECOS CO AIRPORT, TX US",2004-12-31,2023-06-14,Texas,United States,30.91193,-102.91714,917.6
WBAN:14827,"FORT WAYNE INTERNATIONAL AIRPORT, IN US",1941-10-31,2023-06-14,Indiana,United States,40.97248,-85.20636,243
WBAN:53909,"FORT WORTH ALLIANCE AIRPORT, TX US",2004-12-31,2023-06-14,Texas,United States,32.99434,-97.32034,215.6
WBAN:13961,"FORT WORTH MEACHAM FIELD, TX US",1946-07-31,2023-06-14,Texas,United States,32.82478,-97.36403,213.6
WBAN:13911,"FORT WORTH NAS, TX US",1942-11-30,2023-06-14,Texas,United States,32.76667,-97.45,185.3
WBAN:04929,"FOSSTON MUNICIPAL AIRPORT, MN US",2004-12-31,2023-06-14,Minnesota,United States,47.59278,-95.77528,389.2
WBAN:93762,"FOUNTAIN DALE SITE R HELIPAD, PA US",2006-04-30,2017-11-12,Pennsylvania,United States,39.73333,-77.43333,249.3
WBAN:53841,"FRANKFORT CAPITAL CITY AIRPORT, KY US",2004-12-31,2023-06-14,Kentucky,United States,38.18463,-84.90393,236.8
WBAN:54818,"FRANKFORT DOW MEMORIAL FIELD AIRPORT, MI US",2005-10-31,2023-06-14,Michigan,United States,44.62556,-86.20083,192.6
WBAN:00152,"FRANKLIN CO STATE AIRPORT, VT US",2008-03-31,2023-05-09,Vermont,United States,44.933,-73.1,70.1
WBAN:13763,"FRANKLIN MUNICIPAL JOHN BEVERLY ROSE AIRPORT, VA US",1945-02-28,2023-06-14,Virginia,United States,36.69806,-76.90306,12.5
WBAN:94868,"FRANKLIN, PA US",1967-12-31,2023-06-14,Pennsylvania,United States,41.38333,-79.86667,469.4
WBAN:13730,"FREDERICK MUNICIPAL AIRPORT, MD US",1947-12-31,2023-06-14,Maryland,United States,39.41667,-77.38333,93.9
WBAN:03981,"FREDERICK MUNICIPAL AIRPORT, OK US",2004-12-31,2023-06-14,Oklahoma,United States,34.35307,-98.98762,378.2
WBAN:93947,"FREDERICKSBURG GILLESPIE CO AIRPORT, TX US",2004-12-31,2023-06-14,Texas,United States,30.24333,-98.90972,516.6
WBAN:03706,"FREDERICKSBURG SHANNON AIRPORT, VA US",2004-12-31,2023-06-14,Virginia,United States,38.26667,-77.44917,25.9
WBAN:04876,"FREEPORT ALBERTUS AIRPORT, IL US",2004-12-31,2023-06-14,Illinois,United States,42.24611,-89.58222,261.8
WBAN:00140,"FREMONT MUNICIPAL AIRPORT, MI US",2008-12-31,2023-06-14,Michigan,United States,43.433,-86,253.3
WBAN:04924,"FREMONT MUNICIPAL AIRPORT, NE US",2004-12-31,2023-06-14,Nebraska,United States,41.44889,-96.52,366.7
WBAN:04836,"FRENCHVILLE NORTHERN AROOSTOOK AIRPORT, ME US",2004-12-31,2023-06-14,Maine,United States,47.28518,-68.30715,300.1
WBAN:23167,"FRESNO CHANDLER DOWNTOWN AIRPORT, CA US",1947-12-31,1997-09-22,California,United States,36.73333,-119.81667,84.1
WBAN:93193,"FRESNO YOSEMITE INTERNATIONAL, CA US",1941-12-03,2023-06-14,California,United States,36.77999,-119.72016,101.9
WBAN:94276,"FRIDAY HARBOR AIRPORT, WA US",2004-12-31,2023-06-14,Washington,United States,48.51998,-123.0264,34.2
WBAN:93217,"FRITZSCHE ARMY AIR FIELD, CA US",1960-04-03,1993-08-30,California,United States,36.68333,-121.76667,43
WBAN:00450,"FRONT RANGE AIRPORT, CO US",2005-12-02,2020-01-29,Colorado,United States,39.7842,-104.5376,1680.4
WBAN:54772,"FRYEBURG EASTERN SLOPES REGL AIRPORT, ME US",2004-12-31,2023-06-14,Maine,United States,43.98992,-70.95006,137.9
WBAN:03166,"FULLERTON MUNICIPAL AIRPORT, CA US",2004-12-31,2023-06-14,California,United States,33.87154,-117.98561,26.3
WBAN:00265,"FULTON CO AIRPORT, IN US",2010-06-06,2023-06-14,Indiana,United States,41.066,-86.182,241.1
WBAN:54773,"FULTON OSWEGO CO AIRPORT, NY US",2004-12-31,2023-06-14,New York,United States,43.35037,-76.38316,143.5
WBAN:63857,"GADSDEN 19 N, AL US",2005-04-13,2023-06-14,Alabama,United States,34.2851,-85.9621,351.1
WBAN:03896,"GADSDEN MUNICIPAL AIRPORT, AL US",2004-12-31,2023-06-14,Alabama,United States,33.96667,-86.08333,173.4
WBAN:13975,"GAGE AIRPORT, OK US",1946-07-31,2023-06-14,Oklahoma,United States,36.29659,-99.76865,665.9
WBAN:03056,"GAINES CO AIRPORT, TX US",2004-12-31,2023-06-14,Texas,United States,32.67528,-102.65444,1010.4
WBAN:63892,"GAINESVILLE 2 NE, AL US",2007-03-15,2023-06-14,Alabama,United States,32.8369,-88.1374,32.6
WBAN:53838,"GAINESVILLE LEE GILMER MEMORIAL AIRPORT, GA US",2004-12-31,2023-06-14,Georgia,United States,34.27209,-83.83045,386.4
WBAN:93929,"GAINESVILLE MUNICIPAL AIRPORT, TX US",2004-12-31,2023-06-14,Texas,United States,33.65139,-97.19694,255.7
WBAN:12816,"GAINESVILLE REGIONAL AIRPORT, FL US",1943-10-31,2023-06-14,Florida,United States,29.6917,-82.27603,40.7
WBAN:93764,"GAITHERSBURG MONTGOMERY CO AIR PARK, MD US",2007-10-16,2023-06-14,Maryland,United States,39.16667,-77.16667,164.3
WBAN:94959,"GALESBURG MUNICIPAL AIRPORT, IL US",2004-12-31,2023-06-14,Illinois,United States,40.93333,-90.43333,232.9
WBAN:12993,"GALLIANO SOUTH LAFOURCHE AIRPORT, LA US",2006-01-18,2023-06-14,Louisiana,United States,29.44472,-90.26111,0.3
WBAN:23081,"GALLUP MUNICIPAL AIRPORT, NM US",1972-12-31,2023-06-14,New Mexico,United States,35.50857,-108.79319,1970.3
WBAN:00259,GALVESTON 424 OIL PLATFORM,2010-05-06,2016-03-03,null,null,28.577,-94.977,0.3
WBAN:12923,"GALVESTON SCHOLES FIELD, TX US",1943-10-31,2023-06-14,Texas,United States,29.27036,-94.86421,1.5
WBAN:23064,"GARDEN CITY REGIONAL AIRPORT, KS US",1943-01-31,2023-06-14,Kansas,United States,37.92208,-100.72428,877.1
WBAN:12985,"GARNER FIELD AIRPORT, TX US",2004-12-31,2023-06-14,Texas,United States,29.21139,-99.74361,287.1
WBAN:94041,"GARRISON, ND US",2004-12-31,2023-06-14,North Dakota,United States,47.646142,-101.440584,582
WBAN:04807,"GARY, IN US",2004-12-31,2023-06-14,Indiana,United States,41.61667,-87.41667,180.1
WBAN:53870,"GASTONIA MUNICIPAL AIRPORT, NC US",2004-12-31,2023-06-14,North Carolina,United States,35.1968,-81.15552,241.5
WBAN:00362,"GATESVILLE MUNICIPAL AIRPORT, TX US",2004-12-31,2023-06-14,Texas,United States,31.417,-97.8,276.1
WBAN:00497,"GATLINBURG PIGEON FORGE, TN US",2022-08-06,2023-06-14,Tennessee,United States,35.85775,-83.5287,309.1
WBAN:54854,"GAYLORD 9 SSW, MI US",2007-09-18,2023-06-14,Michigan,United States,44.908,-84.7203,445.3
WBAN:04854,"GAYLORD OTSEGO CO AIRPORT, MI US",1999-08-31,2023-06-14,Michigan,United States,45.01657,-84.68942,405.9
WBAN:14842,"GENERAL WAYNE A. DOWNING INTERNATIONAL AIRPORT, IL US",1947-12-31,2023-06-14,Illinois,United States,40.66747,-89.68418,199.7
WBAN:03093,"GENOA 35 N, CO US",2010-06-30,2014-05-31,Colorado,United States,39.7857,-103.517,1452.1
WBAN:00275,"GEORGE M BRYAN AIRPORT, MS US",2012-12-31,2023-06-14,Mississippi,United States,33.433,-88.849,101.2
WBAN:00148,"GEORGE R CARR MEMORIAL AIR FIELD, LA US",2012-08-23,2023-06-14,Louisiana,United States,30.817,-89.867,36.6
WBAN:00391,"GEORGETOWN CO AIRPORT, SC US",2009-05-09,2023-06-14,South Carolina,United States,33.317,-79.317,12.2
WBAN:13764,"GEORGETOWN DELAWARE COASTAL AIRPORT, DE US",2004-12-31,2023-06-14,Delaware,United States,38.68974,-75.36246,15.1
WBAN:53942,"GEORGETOWN MUNICIPAL AIRPORT, TX US",2004-12-31,2023-06-14,Texas,United States,30.67917,-97.67944,239.9
WBAN:53979,"GIDDINGS LEE CO AIRPORT, TX US",2004-12-31,2023-06-14,Texas,United States,30.16917,-96.98,147.8
WBAN:53176,"GILA BEND 3 ENE, AZ US",2010-09-23,2014-05-31,Arizona,United States,32.9649,-112.6697,237.7
WBAN:03148,"GILA BEND ARMY AIR FIELD, AZ US",1968-09-02,2019-12-03,Arizona,United States,32.88333,-112.71667,261.8
WBAN:53143,"GILLESPIE FIELD AIRPORT, CA US",2005-09-02,2023-06-14,California,United States,32.82611,-116.9725,118
WBAN:94023,"GILLETTE CAMPBELL CO AIRPORT, WY US",2004-12-31,2023-06-14,Wyoming,United States,44.33983,-105.54159,1330.3
WBAN:53982,"GILMER MUNICIPAL AIRPORT, TX US",2005-12-31,2023-06-14,Texas,United States,32.69889,-94.94889,126.5
WBAN:94008,"GLASGOW INTERNATIONAL AIRPORT, MT US",1942-12-09,2023-06-14,Montana,United States,48.21416,-106.62139,697.8
WBAN:00361,"GLASGOW MUNICIPAL AIRPORT, KY US",2004-12-31,2023-06-14,Kentucky,United States,37.033,-85.95,218.2
WBAN:04932,"GLENCOE MUNICIPAL AIRPORT, MN US",2004-12-31,2023-06-14,Minnesota,United States,44.75583,-94.08111,302.4
WBAN:53126,"GLENDALE MUNICIPAL AIRPORT, AZ US",2005-01-02,2023-06-14,Arizona,United States,33.52722,-112.295,324.9
WBAN:24087,"GLENDIVE DAWSON COMMUNITY AIRPORT, MT US",2004-12-31,2023-06-14,Montana,United States,47.13333,-104.8,748.9
WBAN:14750,"GLENS FALLS AIRPORT, NY US",1949-01-31,2023-06-14,New York,United States,43.33849,-73.61024,97.7
WBAN:14855,"GLENVIEW NAS, IL US",1945-03-14,2022-12-12,Illinois,United States,42.08333,-87.83333,196.9
WBAN:04931,"GLENWOOD MUNICIPAL AIRPORT, MN US",2004-12-31,2023-06-14,Minnesota,United States,45.64389,-95.32028,424.6
WBAN:00135,"GNOSS FIELD AIRPORT, CA US",2014-07-30,2023-06-14,California,United States,38.15,-122.55,1.2
WBAN:53893,"GOLDEN TRIANGLE, MS US",2004-12-31,2023-06-14,Mississippi,United States,33.45,-88.58333,80.5
WBAN:13713,"GOLDSBORO SEYMOUR JOHNSON AFB, NC US",1943-05-31,2023-06-14,North Carolina,United States,35.3444,-77.9647,33.2
WBAN:03708,"GOLDSBORO WAYNE MUNICIPAL AIRPORT, NC US",2004-12-31,2023-06-14,North Carolina,United States,35.46028,-77.96472,40.8
WBAN:24142,"GOODING MUNICIPAL AIRPORT, ID US",1947-12-31,1982-05-30,Idaho,United States,42.91667,-114.76667,1127.2
WBAN:23065,"GOODLAND RENNER FIELD, KS US",1947-12-31,2023-06-14,Kansas,United States,39.36729,-101.69322,1110.5
WBAN:04994,"GOODRIDGE 12 NNW, MN US",2003-08-19,2023-06-14,Minnesota,United States,48.3055,-95.8744,350.5
WBAN:03055,"GOODWELL 2 E, OK US",2004-02-26,2023-06-14,Oklahoma,United States,36.5993,-101.595,995.5
WBAN:14829,"GOSHEN MUNICIPAL AIRPORT, IN US",1948-11-30,2023-06-14,Indiana,United States,41.52651,-85.78721,251.2
WBAN:53965,"GRAHAM MUNICIPAL AIRPORT, TX US",2004-12-31,2023-06-14,Texas,United States,33.11,-98.55528,342.3
WBAN:53977,"GRANBURY MUNICIPAL AIRPORT, TX US",2004-12-31,2023-06-14,Texas,United States,32.44444,-97.81694,237.1
WBAN:03195,"GRAND CANYON NATIONAL PARK AIRPORT, AZ US",2004-12-31,2023-06-14,Arizona,United States,35.94581,-112.15536,1993.3
WBAN:94925,"GRAND FORKS AF, ND US",1959-03-02,2023-06-14,North Dakota,United States,47.96667,-97.4,278.3
WBAN:14916,"GRAND FORKS INTERNATIONAL AIRPORT, ND US",1948-11-30,2023-06-14,North Dakota,United States,47.94281,-97.18294,255.5
WBAN:14935,"GRAND ISLAND CENTRAL NE REGIONAL AIRPORT, NE US",1944-02-29,2023-06-14,Nebraska,United States,40.96146,-98.31304,561.7
WBAN:00432,"GRAND ISLE SAWRS, LA US",2005-01-02,2016-11-02,Louisiana,United States,29.25,-89.966,2.1
WBAN:12990,"GRAND ISLE SEAPLANE BASE, LA US",2005-05-31,2008-12-30,Louisiana,United States,29.19194,-90.07528,2.1
WBAN:03076,"GRAND JUNCTION 9 W, CO US",2009-06-15,2014-05-31,Colorado,United States,39.1018,-108.7353,1769.7
WBAN:23066,"GRAND JUNCTION WALKER FIELD, CO US",1947-12-31,2023-06-14,Colorado,United States,39.13437,-108.54081,1470.4
WBAN:04911,"GRAND MARAIS COOK CO AIRPORT, MN US",2004-12-31,2023-06-14,Minnesota,United States,47.83806,-90.38306,548
WBAN:94992,"GRAND MARAIS, MN US",2004-12-31,2023-06-14,Minnesota,United States,47.745404,-90.345639,185
WBAN:53984,"GRAND PRAIRIE MUNICIPAL AIRPORT, TX US",2005-04-06,2023-06-14,Texas,United States,32.69861,-97.04667,179.5
WBAN:94860,"GRAND RAPIDS GERALD R FORD INTERNATIONAL AIRPORT, MI US",1963-11-30,2023-06-14,Michigan,United States,42.8821,-85.52297,240.3
WBAN:94919,"GRAND RAPIDS ITASCA CO AIRPORT, MN US",2004-12-31,2023-06-14,Minnesota,United States,47.21111,-93.50972,413
WBAN:04999,"GRANITE FALLS MUNICIPAL AIRPORT LENZEN ROE MEMORIAL FIELD, MN US",2005-12-31,2023-06-14,Minnesota,United States,44.75333,-95.55611,319.1
WBAN:04134,"GRANITE PEAK DUGWAY PROVING GROUND, UT US",2006-08-30,2013-02-27,Utah,United States,40.160386,-113.350616,1310.6
WBAN:00481,"GRANITE PEAK FILLMORE AIRPORT, UT US",2014-07-29,2023-06-13,Utah,United States,38.95813,-112.36313,1519.4
WBAN:00387,"GRANT CO REGIONAL AIRPORT OGILVIE FIELD, OR US",2005-01-02,2023-06-14,Oregon,United States,44.4,-118.967,1127.2
WBAN:53003,"GRANTS 2 S, NM US",2010-08-27,2014-05-31,New Mexico,United States,35.1188,-107.8303,1963.8
WBAN:93057,"GRANTS MILAN MUNICIPAL AIRPORT, NM US",1947-12-31,2023-06-14,New Mexico,United States,35.16528,-107.90222,1987.3
WBAN:24201,"GRAY ARMY AIR FIELD, WA US",1939-03-31,2023-06-14,Washington,United States,47.08333,-122.58333,91.4
WBAN:04878,"GRAYLING ARMY AIR FIELD AIRPORT, MI US",2004-12-31,2023-06-14,Michigan,United States,44.68028,-84.72861,350.2
WBAN:53967,"GRAYSON CO AIRPORT SHERMAN DENISON, TX US",2004-12-31,2023-06-14,Texas,United States,33.71417,-96.67361,228.3
WBAN:13940,"GREAT BEND MUNICIPAL AIRPORT, KS US",2004-12-31,2023-06-14,Kansas,United States,38.35,-98.86667,573
WBAN:24143,"GREAT FALLS AIRPORT, MT US",1947-12-31,2023-06-14,Montana,United States,47.47327,-111.38281,1117.7
WBAN:04880,"GREATER KANKAKEE AIRPORT, IL US",2004-12-31,2023-06-14,Illinois,United States,41.0714,-87.8463,191.7
WBAN:24051,"GREELEY WELD CO AIRPORT, CO US",2004-12-31,2023-06-14,Colorado,United States,40.43556,-104.63194,1431.6
WBAN:14898,"GREEN BAY A S INTERNATIONAL AIRPORT, WI US",1949-08-31,2023-06-14,Wisconsin,United States,44.47958,-88.1371,208.6
WBAN:00453,GREEN CANYON 338,2011-01-12,2023-06-14,null,null,27.63,-90.45,58.2
WBAN:93132,"GREEN RIVER RNG GWC, UT US",2005-06-08,2009-04-30,Utah,United States,39,-110.15,1241.1
WBAN:63893,"GREENSBORO 2 WNW, AL US",2007-03-14,2023-06-14,Alabama,United States,32.7169,-87.6226,85.3
WBAN:63877,"GREENSBORO GREENE CO REGIONAL AIRPORT, GA US",2005-12-31,2023-05-02,Georgia,United States,33.59778,-83.13889,206.3
WBAN:13723,"GREENSBORO PIEDMONT TRIAD INTERNATIONAL AIRPORT, NC US",1945-10-31,2023-06-14,North Carolina,United States,36.0969,-79.94316,275
WBAN:13939,"GREENVILLE ASOS, MS US",1942-01-19,2023-06-14,Mississippi,United States,33.49385,-90.98058,37.8
WBAN:63889,"GREENVILLE DONALDSON CENTER AIRPORT, SC US",2005-12-31,2023-06-14,South Carolina,United States,34.75833,-82.37639,291.1
WBAN:13886,"GREENVILLE DOWNTOWN AIRPORT, SC US",1942-09-07,2023-06-14,South Carolina,United States,34.84872,-82.35006,309.9
WBAN:63874,"GREENVILLE MAC CRENSHAW MEMORIAL AIRPORT, AL US",2006-08-31,2023-06-14,Alabama,United States,31.84675,-86.6141,134.8
WBAN:13926,"GREENVILLE MUNICIPAL AIRPORT MAJORS FIELD, TX US",2005-04-19,2023-06-14,Texas,United States,33.06778,-96.06528,163.1
WBAN:94626,"GREENVILLE MUNICIPAL AIRPORT, ME US",2004-12-31,2023-06-14,Maine,United States,45.4631,-69.55526,424.3
WBAN:13783,"GREENVILLE PITT GREENVILLE AIRPORT, NC US",2004-12-31,2023-06-14,North Carolina,United States,35.63333,-77.38333,7.6
