network,station id,start_date,end_date,lat,lon,elev,element,state,county,Subwatersh,site_name,site_info_,cdbs_id,shef_id,gmt_offset
snotel,"1267",2014-08-28,2100-01-01,61.750000000000000,-150.889999999999986,"160",Snow Water Equivalent,AK,Matanuska-susitna,Headwaters Alexander Creek,Alexander Lake,http://www.wcc.nrcs.usda.gov/nwcc/site?sitenum=1267,50M01S,,9.000000000000000
snotel,"1189",2011-08-04,2100-01-01,64.790000000000006,-141.229999999999990,"1050",Snow Water Equivalent,AK,Southeast Fairbanks,American Creek,American Creek,http://www.wcc.nrcs.usda.gov/nwcc/site?sitenum=1189,41P07S,AMCA2,9.000000000000000
snotel,"1062",1980-10-01,2100-01-01,59.859999999999999,-151.319999999999993,"1653",Snow Water Equivalent,AK,Kenai Peninsula,Headwaters Anchor River,Anchor River Divide,http://www.wcc.nrcs.usda.gov/nwcc/site?sitenum=1062,51K05S,ARDA2,9.000000000000000
snotel,"1070",2004-10-01,2100-01-01,61.109999999999999,-149.669999999999987,"2080",Snow Water Equivalent,AK,Anchorage,South Fork Campbell Creek,Anchorage Hillside,http://www.wcc.nrcs.usda.gov/nwcc/site?sitenum=1070,49M22S,HILA2,9.000000000000000
snotel,"1182",1980-10-01,2100-01-01,66.920000000000002,-151.530000000000001,"640",Snow Water Equivalent,AK,Yukon-koyukuk,Jack White Creek-Koyukuk River,Bettles Field,http://www.wcc.nrcs.usda.gov/nwcc/site?sitenum=1182,51R01S,BFLA2,9.000000000000000
snotel,"1093",2007-10-01,2100-01-01,62.070000000000000,-142.050000000000011,"3320",Snow Water Equivalent,AK,Southeast Fairbanks,Red Hill Creek-Chisana River,Chisana,http://www.wcc.nrcs.usda.gov/nwcc/site?sitenum=1093,42N01S,CNAA2,9.000000000000000
snotel,"958",1994-10-01,2100-01-01,67.250000000000000,-150.180000000000007,"1040",Snow Water Equivalent,AK,Yukon-koyukuk,Slate Creek,Coldfoot,http://www.wcc.nrcs.usda.gov/nwcc/site?sitenum=958,50S01S,COFA2,9.000000000000000
snotel,"959",1981-10-01,2100-01-01,60.390000000000001,-149.689999999999998,"1200",Snow Water Equivalent,AK,Kenai Peninsula,Kenai Lake,Cooper Lake,http://www.wcc.nrcs.usda.gov/nwcc/site?sitenum=959,49L10S,CORA2,9.000000000000000
snotel,"1092",2011-07-08,2100-01-01,60.189999999999998,-149.620000000000005,"400",Snow Water Equivalent,AK,Kenai Peninsula,Oulet Resurrection River,Exit Glacier,http://www.wcc.nrcs.usda.gov/nwcc/site?sitenum=1092,49L18S,EXGA2,9.000000000000000
snotel,"1174",1982-10-01,2100-01-01,64.849999999999994,-147.800000000000011,"450",Snow Water Equivalent,AK,Fairbanks North Star,Chena River,Fairbanks F.O.,http://www.wcc.nrcs.usda.gov/nwcc/site?sitenum=1174,47P03S,FOFA2,9.000000000000000
snotel,"1268",2014-08-07,2100-01-01,63.200000000000003,-145.629999999999995,"3000",Snow Water Equivalent,AK,Valdez-cordova,Fielding Lake,Fielding Lake,http://www.wcc.nrcs.usda.gov/nwcc/site?sitenum=1268,45O01S,,9.000000000000000
snotel,"956",1990-10-01,2100-01-01,60.609999999999999,-149.060000000000002,"1100",Snow Water Equivalent,AK,Kenai Peninsula,Headwaters Trail Creek,Grandview,http://www.wcc.nrcs.usda.gov/nwcc/site?sitenum=956,49L09S,GRVA2,9.000000000000000
snotel,"963",1988-10-01,2100-01-01,63.939999999999998,-145.400000000000006,"1240",Snow Water Equivalent,AK,Southeast Fairbanks,Granite Creek,Granite Crk,http://www.wcc.nrcs.usda.gov/nwcc/site?sitenum=963,45O04S,GCKA2,9.000000000000000
snotel,"964",1996-10-01,2100-01-01,60.259999999999998,-149.340000000000003,"700",Snow Water Equivalent,AK,Kenai Peninsula,South Fork Snow River,Grouse Creek Divide,http://www.wcc.nrcs.usda.gov/nwcc/site?sitenum=964,49L14S,GCRA2,9.000000000000000
snotel,"1091",1997-10-01,2100-01-01,61.789999999999999,-149.280000000000001,"3550",Snow Water Equivalent,AK,Matanuska-susitna,Cow Lake-Fish Creek,Independence Mine,http://www.wcc.nrcs.usda.gov/nwcc/site?sitenum=1091,49M26S,HATA2,9.000000000000000
snotel,"946",1979-10-01,2100-01-01,61.070000000000000,-149.479999999999990,"2350",Snow Water Equivalent,AK,Anchorage,Headwaters Ship Creek,Indian Pass,http://www.wcc.nrcs.usda.gov/nwcc/site?sitenum=946,49M08S,INPA2,9.000000000000000
snotel,"1175",1992-10-01,2100-01-01,67.930000000000007,-162.280000000000001,"310",Snow Water Equivalent,AK,Northwest Arctic,190504030802-Noatak River,Kelly Station,http://www.wcc.nrcs.usda.gov/nwcc/site?sitenum=1175,62S01S,KLLA2,9.000000000000000
snotel,"966",1988-10-01,2100-01-01,60.729999999999997,-150.479999999999990,"300",Snow Water Equivalent,AK,Kenai Peninsula,Upper Moose River,Kenai Moose Pens,http://www.wcc.nrcs.usda.gov/nwcc/site?sitenum=966,50L02S,KMPA2,9.000000000000000
snotel,"947",1980-10-01,2100-01-01,65.120000000000005,-146.729999999999990,"2000",Snow Water Equivalent,AK,Fairbanks North Star,190405060706-Little Chena River,Little Chena Ridge,http://www.wcc.nrcs.usda.gov/nwcc/site?sitenum=947,46Q02S,LCHA2,9.000000000000000
snotel,"1001",1966-10-01,2100-01-01,58.189999999999998,-133.830000000000013,"850",Snow Water Equivalent,AK,Juneau,Long River,Long Lake,http://www.wcc.nrcs.usda.gov/nwcc/site?sitenum=1001,33J01S,LLKA2,9.000000000000000
snotel,"1096",2006-10-01,2100-01-01,61.350000000000001,-142.710000000000008,"1610",Snow Water Equivalent,AK,Valdez-cordova,Lower Young Creek,May Creek,http://www.wcc.nrcs.usda.gov/nwcc/site?sitenum=1096,42M01S,SNCA2,9.000000000000000
snotel,"1003",1986-10-01,2100-01-01,59.740000000000002,-151.250000000000000,"1320",Snow Water Equivalent,AK,Kenai Peninsula,Swift Creek-Frontal Kachemak Bay,Mcneil Canyon,http://www.wcc.nrcs.usda.gov/nwcc/site?sitenum=1003,51K14S,MCNA2,9.000000000000000
snotel,"949",1980-10-01,2100-01-01,65.079999999999998,-145.870000000000005,"1850",Snow Water Equivalent,AK,Fairbanks North Star,Monument Creek,Monument Creek,http://www.wcc.nrcs.usda.gov/nwcc/site?sitenum=949,45Q02S,MNCA2,9.000000000000000
snotel,"1035",2001-10-01,2100-01-01,61.380000000000003,-149.000000000000000,"2100",Snow Water Equivalent,AK,Anchorage,Eklutna Lake,Moraine,http://www.wcc.nrcs.usda.gov/nwcc/site?sitenum=1035,48M04S,MORA2,9.000000000000000
snotel,"1103",1972-10-01,2100-01-01,60.960000000000001,-149.090000000000003,"1540",Snow Water Equivalent,AK,Anchorage,Glacier Creek,Mt. Alyeska,http://www.wcc.nrcs.usda.gov/nwcc/site?sitenum=1103,49L01S,YESA2,9.000000000000000
snotel,"1073",2004-10-01,2100-01-01,60.549999999999997,-145.750000000000000,"1405",Snow Water Equivalent,AK,Valdez-cordova,Orca Inlet-Frontal Prince William Sound,Mt. Eyak,http://www.wcc.nrcs.usda.gov/nwcc/site?sitenum=1073,45L01S,EYKA2,9.000000000000000
snotel,"948",1980-10-01,2100-01-01,65.250000000000000,-146.150000000000006,"2800",Snow Water Equivalent,AK,Fairbanks North Star,Headwaters West Fork Chena River,Mt. Ryan,http://www.wcc.nrcs.usda.gov/nwcc/site?sitenum=948,46Q01S,MTRA2,9.000000000000000
snotel,"950",1980-10-01,2100-01-01,64.849999999999994,-146.210000000000008,"3100",Snow Water Equivalent,AK,Fairbanks North Star,Rock Creek-Chena River,Munson Ridge,http://www.wcc.nrcs.usda.gov/nwcc/site?sitenum=950,46P01S,MSOA2,9.000000000000000
snotel,"1002",1998-10-01,2100-01-01,61.390000000000001,-150.030000000000001,"250",Snow Water Equivalent,AK,Matanuska-susitna,Horseshoe Creek-Little Susitna River,Point Mackenzie,http://www.wcc.nrcs.usda.gov/nwcc/site?sitenum=1002,50M03S,PTMA2,9.000000000000000
snotel,"987",1999-10-01,2100-01-01,59.350000000000001,-151.849999999999994,"300",Snow Water Equivalent,AK,Kenai Peninsula,"190203011207",Port Graham,http://www.wcc.nrcs.usda.gov/nwcc/site?sitenum=987,51K15S,PGRA2,9.000000000000000
snotel,"955",1988-10-01,2100-01-01,60.619999999999997,-149.530000000000001,"1400",Snow Water Equivalent,AK,Kenai Peninsula,Headwaters Canyon Creek,Summit Creek,http://www.wcc.nrcs.usda.gov/nwcc/site?sitenum=955,49L19S,SUUA2,9.000000000000000
snotel,"967",1987-10-01,2100-01-01,62.130000000000003,-150.039999999999992,"375",Snow Water Equivalent,AK,Matanuska-susitna,Little Montana Creek-Montana Creek,Susitna Valley High,http://www.wcc.nrcs.usda.gov/nwcc/site?sitenum=967,50N07S,SUVA2,9.000000000000000
snotel,"1266",2014-07-09,2100-01-01,60.979999999999997,-153.919999999999987,"1275",Snow Water Equivalent,AK,Bethel,Upper Telaquana River,Telaquana Lake,http://www.wcc.nrcs.usda.gov/nwcc/site?sitenum=1266,53L01S,,9.000000000000000
snotel,"951",1980-10-01,2100-01-01,64.950000000000003,-145.520000000000010,"1640",Snow Water Equivalent,AK,Fairbanks North Star,Teuchet Creek,Teuchet Creek,http://www.wcc.nrcs.usda.gov/nwcc/site?sitenum=951,45P03S,TEUA2,9.000000000000000
snotel,"1089",2005-10-01,2100-01-01,62.630000000000003,-150.780000000000001,"850",Snow Water Equivalent,AK,Matanuska-susitna,Upper Tokositna River,Tokositna Valley,http://www.wcc.nrcs.usda.gov/nwcc/site?sitenum=1089,50N05S,TKVA2,9.000000000000000
snotel,"954",1981-10-01,2100-01-01,60.780000000000001,-149.180000000000007,"1880",Snow Water Equivalent,AK,Kenai Peninsula,Granite Creek,Turnagain Pass,http://www.wcc.nrcs.usda.gov/nwcc/site?sitenum=954,49L13S,TUGA2,9.000000000000000
snotel,"952",1985-10-01,2100-01-01,65.099999999999994,-144.930000000000007,"2850",Snow Water Equivalent,AK,Fairbanks North Star,Headwaters Middle Fork Chena River,Upper Chena,http://www.wcc.nrcs.usda.gov/nwcc/site?sitenum=952,44Q07S,UCEA2,9.000000000000000
snotel,"1055",2002-10-01,2100-01-01,61.189999999999998,-145.650000000000006,"1750",Snow Water Equivalent,AK,Valdez-cordova,Middle Tsina River,Upper Tsaina River,http://www.wcc.nrcs.usda.gov/nwcc/site?sitenum=1055,45M07S,UPPA2,9.000000000000000
snotel,"308",1978-10-01,2100-01-01,34.460000000000001,-111.409999999999997,"7300",Snow Water Equivalent,AZ,Gila,Pine Creek,Baker Butte,http://www.wcc.nrcs.usda.gov/nwcc/site?sitenum=308,11R06S,BKBA3,8.000000000000000
snotel,"1140",2009-05-18,2100-01-01,34.460000000000001,-111.379999999999995,"7700",Snow Water Equivalent,AZ,Coconino,Toms Creek,Baker Butte Smt,http://www.wcc.nrcs.usda.gov/nwcc/site?sitenum=1140,11R07S,BBSA3,8.000000000000000
snotel,"310",1978-10-01,2100-01-01,33.979999999999997,-109.500000000000000,"9125",Snow Water Equivalent,AZ,Apache,Hall Creek-Little Colorado River,Baldy,http://www.wcc.nrcs.usda.gov/nwcc/site?sitenum=310,09S01S,BLDA3,8.000000000000000
snotel,"1212",2012-09-06,2100-01-01,34.859999999999999,-111.609999999999999,"6393",Snow Water Equivalent,AZ,Coconino,Bar M Canyon,Bar M,http://www.wcc.nrcs.usda.gov/nwcc/site?sitenum=1212,11R13S,,8.000000000000000
snotel,"902",1993-10-01,2100-01-01,33.689999999999998,-109.219999999999999,"7990",Snow Water Equivalent,AZ,Greenlee,Upper Beaver Creek,Beaver Head,http://www.wcc.nrcs.usda.gov/nwcc/site?sitenum=902,09S06S,XBHA3,8.000000000000000
snotel,"1143",2009-10-01,2100-01-01,36.329999999999998,-109.060000000000002,"9200",Snow Water Equivalent,AZ,Apache,Tsaile Creek-Tsaile Lake,Beaver Spring,http://www.wcc.nrcs.usda.gov/nwcc/site?sitenum=1143,09N05S,BVRA3,8.000000000000000
snotel,"372",1983-10-01,1997-10-01,34.109999999999999,-109.849999999999994,"7400",Snow Water Equivalent,AZ,Apache,Billy Creek,Buck Spring,http://www.wcc.nrcs.usda.gov/nwcc/site?sitenum=372,09R11S,BKSA3,8.000000000000000
snotel,"1139",2009-05-15,2100-01-01,35.259999999999998,-112.060000000000002,"7100",Snow Water Equivalent,AZ,Coconino,Pitman Valley-Scholz Lake,Chalender,http://www.wcc.nrcs.usda.gov/nwcc/site?sitenum=1139,12P01S,CDRA3,8.000000000000000
snotel,"416",1978-10-01,2100-01-01,33.799999999999997,-109.150000000000006,"8400",Snow Water Equivalent,AZ,Apache,Coleman Creek,Coronado Trail,http://www.wcc.nrcs.usda.gov/nwcc/site?sitenum=416,09S07S,CNDA3,8.000000000000000
snotel,"1121",2008-06-26,2100-01-01,35.270000000000003,-111.739999999999995,"7350",Snow Water Equivalent,AZ,Coconino,Upper Rio de Flag,Fort Valley,http://www.wcc.nrcs.usda.gov/nwcc/site?sitenum=1121,11P02S,FRVA3,8.000000000000000
snotel,"488",1978-10-01,2100-01-01,35.070000000000000,-111.840000000000003,"7200",Snow Water Equivalent,AZ,Coconino,Fry Canyon,Fry,http://www.wcc.nrcs.usda.gov/nwcc/site?sitenum=488,11P13S,FRYA3,8.000000000000000
snotel,"511",1978-10-01,2100-01-01,33.649999999999999,-109.310000000000002,"9020",Snow Water Equivalent,AZ,Greenlee,Upper Beaver Creek,Hannagan Meadows,http://www.wcc.nrcs.usda.gov/nwcc/site?sitenum=511,09S11S,HNMA3,8.000000000000000
snotel,"969",1999-06-13,2100-01-01,34.750000000000000,-111.409999999999997,"7630",Snow Water Equivalent,AZ,Coconino,Brady Canyon,Happy Jack,http://www.wcc.nrcs.usda.gov/nwcc/site?sitenum=969,11R05S,XHJA3,8.000000000000000
snotel,"519",1978-10-01,2100-01-01,34.310000000000002,-110.750000000000000,"7640",Snow Water Equivalent,AZ,Coconino,West Fork Black Canyon,Heber,http://www.wcc.nrcs.usda.gov/nwcc/site?sitenum=519,10R04S,HBEA3,8.000000000000000
snotel,"617",1978-10-01,2100-01-01,33.920000000000002,-109.459999999999994,"9200",Snow Water Equivalent,AZ,Apache,Upper West Fork Black River,Maverick Fork,http://www.wcc.nrcs.usda.gov/nwcc/site?sitenum=617,09S02S,MVFA3,8.000000000000000
snotel,"640",1978-10-01,2100-01-01,34.939999999999998,-111.519999999999996,"7500",Snow Water Equivalent,AZ,Coconino,Mormon Lake,Mormon Mountain,http://www.wcc.nrcs.usda.gov/nwcc/site?sitenum=640,11R03S,MRMA3,8.000000000000000
snotel,"1125",2008-06-02,2100-01-01,34.969999999999999,-111.510000000000005,"8500",Snow Water Equivalent,AZ,Coconino,Walnut Creek-Upper Lake Mary,Mormon Mtn Summit,http://www.wcc.nrcs.usda.gov/nwcc/site?sitenum=1125,11R12S,MMNA3,8.000000000000000
snotel,"1127",2008-06-02,2100-01-01,33.899999999999999,-109.159999999999997,"8500",Snow Water Equivalent,AZ,Apache,San Francisco River-Luna Lake,Nutrioso,http://www.wcc.nrcs.usda.gov/nwcc/site?sitenum=1127,09S04S,NUTA3,8.000000000000000
snotel,"705",1979-10-01,2100-01-01,34.369999999999997,-111.010000000000005,"7930",Snow Water Equivalent,AZ,Coconino,Upper Willow Creek,Promontory,http://www.wcc.nrcs.usda.gov/nwcc/site?sitenum=705,11R10S,PROA3,8.000000000000000
snotel,"927",1997-09-13,2100-01-01,35.340000000000003,-111.650000000000006,"9730",Snow Water Equivalent,AZ,Coconino,Bear Jaw Canyon,Snowslide Canyon,http://www.wcc.nrcs.usda.gov/nwcc/site?sitenum=927,11P08S,XSCA3,8.000000000000000
snotel,"799",1978-10-01,1999-06-08,34.619999999999997,-111.519999999999996,"6120",Snow Water Equivalent,AZ,Coconino,Home Tank Draw,Sugar Loaf,http://www.wcc.nrcs.usda.gov/nwcc/site?sitenum=799,11R08S,SGLA3,8.000000000000000
snotel,"861",1978-10-01,2100-01-01,35.140000000000001,-112.150000000000006,"7180",Snow Water Equivalent,AZ,Coconino,Upper Hell Canyon,White Horse Lake,http://www.wcc.nrcs.usda.gov/nwcc/site?sitenum=861,12P02S,WHLA3,8.000000000000000
snotel,"866",1983-10-01,2100-01-01,33.759999999999998,-109.480000000000004,"7850",Snow Water Equivalent,AZ,Greenlee,Centerfire Creek,Wildcat,http://www.wcc.nrcs.usda.gov/nwcc/site?sitenum=866,09S18S,WCTA3,8.000000000000000
snotel,"877",1978-10-01,2100-01-01,33.810000000000002,-110.920000000000002,"6900",Snow Water Equivalent,AZ,Gila,Workman Creek,Workman Creek,http://www.wcc.nrcs.usda.gov/nwcc/site?sitenum=877,10S01S,WKMA3,8.000000000000000
snotel,"301",1983-10-01,2100-01-01,41.240000000000002,-120.790000000000006,"6190",Snow Water Equivalent,CA,Modoc,Cottonwood Creek,Adin Mtn,http://www.wcc.nrcs.usda.gov/nwcc/site?sitenum=301,20H13S,ADMC1,8.000000000000000
snotel,"356",1979-10-01,2100-01-01,38.609999999999999,-119.920000000000002,"8057",Snow Water Equivalent,CA,Alpine,Deer Creek,Blue Lakes,http://www.wcc.nrcs.usda.gov/nwcc/site?sitenum=356,19L05S,BLAC1,8.000000000000000
snotel,"1051",2003-09-21,2100-01-01,38.719999999999999,-119.890000000000001,"8129",Snow Water Equivalent,CA,Alpine,Hot Springs Creek,Burnside Lake,http://www.wcc.nrcs.usda.gov/nwcc/site?sitenum=1051,19L41S,BSKC1,8.000000000000000
snotel,"1067",2004-09-23,2100-01-01,38.689999999999998,-119.989999999999995,"8353",Snow Water Equivalent,CA,El Dorado,Caples Creek,Carson Pass,http://www.wcc.nrcs.usda.gov/nwcc/site?sitenum=1067,19L45S,CXSC1,8.000000000000000
snotel,"391",1978-10-01,2100-01-01,41.579999999999998,-120.299999999999997,"7030",Snow Water Equivalent,CA,Modoc,Thoms Creek,Cedar Pass,http://www.wcc.nrcs.usda.gov/nwcc/site?sitenum=391,20H06S,CDRC1,8.000000000000000
snotel,"977",1999-10-01,2100-01-01,41.890000000000001,-120.750000000000000,"5170",Snow Water Equivalent,CA,Modoc,Mosquito Creek-Willow Creek,Crowder Flat,http://www.wcc.nrcs.usda.gov/nwcc/site?sitenum=977,20H02S,CRWC1,8.000000000000000
snotel,"428",1980-10-01,2100-01-01,39.329999999999998,-120.370000000000005,"6855",Snow Water Equivalent,CA,Nevada,Rattlesnake Creek-South Yuba River,Css Lab,http://www.wcc.nrcs.usda.gov/nwcc/site?sitenum=428,20K31S,CSSC1,8.000000000000000
snotel,"446",1979-10-01,2100-01-01,41.990000000000002,-120.180000000000007,"7360",Snow Water Equivalent,CA,Modoc,Dismal Creek-Deep Creek,Dismal Swamp,http://www.wcc.nrcs.usda.gov/nwcc/site?sitenum=446,20H12S,DMLC1,8.000000000000000
snotel,"462",1978-10-01,2100-01-01,38.549999999999997,-119.799999999999997,"8765",Snow Water Equivalent,CA,Alpine,Silver Creek,Ebbetts Pass,http://www.wcc.nrcs.usda.gov/nwcc/site?sitenum=462,19L19S,EBTC1,8.000000000000000
snotel,"463",1978-10-01,2100-01-01,38.850000000000001,-120.079999999999998,"7670",Snow Water Equivalent,CA,El Dorado,Upper Truckee River-Frontal Lake Tahoe,Echo Peak,http://www.wcc.nrcs.usda.gov/nwcc/site?sitenum=463,20L06S,ECOC1,8.000000000000000
snotel,"473",1978-10-01,2100-01-01,38.930000000000000,-120.049999999999997,"6236",Snow Water Equivalent,CA,El Dorado,Fallen Leaf Lake-Frontal Lake Tahoe,Fallen Leaf,http://www.wcc.nrcs.usda.gov/nwcc/site?sitenum=473,20L10S,FLFC1,8.000000000000000
snotel,"1049",2003-09-20,2100-01-01,38.680000000000000,-119.959999999999994,"8017",Snow Water Equivalent,CA,Alpine,Upper West Fork Carson River,Forestdale Creek,http://www.wcc.nrcs.usda.gov/nwcc/site?sitenum=1049,19L43S,FDCC1,8.000000000000000
snotel,"508",1978-10-01,2100-01-01,38.850000000000001,-119.939999999999998,"7776",Snow Water Equivalent,CA,El Dorado,Trout Creek,Hagan's Meadow,http://www.wcc.nrcs.usda.gov/nwcc/site?sitenum=508,19L03S,HGNC1,8.000000000000000
snotel,"518",1978-10-01,2100-01-01,38.920000000000002,-119.920000000000002,"8582",Snow Water Equivalent,CA,El Dorado,Trout Creek,Heavenly Valley,http://www.wcc.nrcs.usda.gov/nwcc/site?sitenum=518,19L24S,HVNC1,8.000000000000000
snotel,"1050",2003-09-21,2100-01-01,38.840000000000003,-119.890000000000001,"8557",Snow Water Equivalent,CA,Alpine,Middle West Fork Carson River,Horse Meadow,http://www.wcc.nrcs.usda.gov/nwcc/site?sitenum=1050,19L44S,HORC1,8.000000000000000
snotel,"539",1978-10-01,2100-01-01,39.450000000000003,-120.290000000000006,"7003",Snow Water Equivalent,CA,Sierra,Independence Creek,Independence Camp,http://www.wcc.nrcs.usda.gov/nwcc/site?sitenum=539,20K04S,ICPC1,8.000000000000000
snotel,"540",1979-10-01,2100-01-01,39.490000000000002,-120.280000000000001,"6456",Snow Water Equivalent,CA,Sierra,Independence Creek,Independence Creek,http://www.wcc.nrcs.usda.gov/nwcc/site?sitenum=540,20K03S,ICKC1,8.000000000000000
snotel,"541",1978-10-01,2100-01-01,39.430000000000000,-120.310000000000002,"8352",Snow Water Equivalent,CA,Nevada,Sagehen Creek,Independence Lake,http://www.wcc.nrcs.usda.gov/nwcc/site?sitenum=541,20K05S,ILKC1,8.000000000000000
snotel,"574",1988-10-01,2100-01-01,38.280000000000001,-119.609999999999999,"9617",Snow Water Equivalent,CA,Mono,Leavitt Creek-West Walker River,Leavitt Lake,http://www.wcc.nrcs.usda.gov/nwcc/site?sitenum=574,19L38S,LELC1,8.000000000000000
snotel,"575",1979-10-01,2100-01-01,38.299999999999997,-119.549999999999997,"7198",Snow Water Equivalent,CA,Mono,Leavitt Creek-West Walker River,Leavitt Meadows,http://www.wcc.nrcs.usda.gov/nwcc/site?sitenum=575,19L08S,LVTC1,8.000000000000000
snotel,"587",1978-10-01,2100-01-01,38.439999999999998,-119.370000000000005,"9233",Snow Water Equivalent,CA,Mono,Deep Creek,Lobdell Lake,http://www.wcc.nrcs.usda.gov/nwcc/site?sitenum=587,19L17S,LOBC1,8.000000000000000
snotel,"633",1989-10-01,2100-01-01,38.670000000000002,-119.609999999999999,"8310",Snow Water Equivalent,CA,Alpine,Leviathan Canyon,Monitor Pass,http://www.wcc.nrcs.usda.gov/nwcc/site?sitenum=633,19L40S,MNPC1,8.000000000000000
snotel,"697",1979-10-01,2100-01-01,38.509999999999998,-119.629999999999995,"7736",Snow Water Equivalent,CA,Alpine,Bryant Creek-East Fork Carson River,Poison Flat,http://www.wcc.nrcs.usda.gov/nwcc/site?sitenum=697,19L06S,XXXC1,8.000000000000000
snotel,"724",1979-10-01,2100-01-01,39.000000000000000,-120.129999999999995,"7689",Snow Water Equivalent,CA,El Dorado,General Creek-Frontal Lake Tahoe,Rubicon #2,http://www.wcc.nrcs.usda.gov/nwcc/site?sitenum=724,20L02S,RUBC1,8.000000000000000
snotel,"771",1978-10-01,2100-01-01,38.310000000000002,-119.599999999999994,"8827",Snow Water Equivalent,CA,Mono,Leavitt Creek-West Walker River,Sonora Pass,http://www.wcc.nrcs.usda.gov/nwcc/site?sitenum=771,19L07S,SRAC1,8.000000000000000
snotel,"778",1979-10-01,2100-01-01,38.670000000000002,-119.819999999999993,"6115",Snow Water Equivalent,CA,Alpine,Hot Springs Creek,Spratt Creek,http://www.wcc.nrcs.usda.gov/nwcc/site?sitenum=778,19L39S,SPCC1,8.000000000000000
snotel,"784",1979-10-01,2100-01-01,39.189999999999998,-120.260000000000005,"8029",Snow Water Equivalent,CA,Placer,Squaw Creek-Truckee River,Squaw Valley G.C.,http://www.wcc.nrcs.usda.gov/nwcc/site?sitenum=784,20K30S,SQWC1,8.000000000000000
snotel,"1258",2014-06-17,2100-01-01,41.990000000000002,-120.719999999999999,"5680",Snow Water Equivalent,CA,Modoc,Weed Valley-North Fork Willow Creek,State Line,http://www.wcc.nrcs.usda.gov/nwcc/site?sitenum=1258,20H01S,TATC1,8.000000000000000
snotel,"1052",2003-09-22,2100-01-01,38.399999999999999,-119.540000000000006,"9313",Snow Water Equivalent,CA,Alpine,Mill Creek,Summit Meadow,http://www.wcc.nrcs.usda.gov/nwcc/site?sitenum=1052,19L42S,SDWC1,8.000000000000000
snotel,"809",1979-10-01,2100-01-01,39.170000000000002,-120.150000000000006,"6797",Snow Water Equivalent,CA,Placer,Burton Creek-Frontal Lake Tahoe,Tahoe City Cross,http://www.wcc.nrcs.usda.gov/nwcc/site?sitenum=809,20K27S,THOC1,8.000000000000000
snotel,"834",1979-10-01,2100-01-01,39.299999999999997,-120.180000000000007,"6509",Snow Water Equivalent,CA,Placer,Martis Creek,Truckee #2,http://www.wcc.nrcs.usda.gov/nwcc/site?sitenum=834,20K13S,TRUC1,8.000000000000000
snotel,"846",1978-10-01,2100-01-01,38.070000000000000,-119.230000000000004,"9445",Snow Water Equivalent,CA,Mono,Virginia Creek,Virginia Lakes Ridge,http://www.wcc.nrcs.usda.gov/nwcc/site?sitenum=846,19L13S,VGAC1,8.000000000000000
snotel,"848",1978-10-01,2100-01-01,39.140000000000001,-120.219999999999999,"6655",Snow Water Equivalent,CA,Placer,Ward Creek-Frontal Lake Tahoe,Ward Creek #3,http://www.wcc.nrcs.usda.gov/nwcc/site?sitenum=848,20K25S,WRDC1,8.000000000000000
snotel,"303",1979-10-01,2100-01-01,37.329999999999998,-105.069999999999993,"10000",Snow Water Equivalent,CO,Huerfano,Middle Creek-Cucharas River,Apishapa,http://www.wcc.nrcs.usda.gov/nwcc/site?sitenum=303,05M07S,APSC2,8.000000000000000
snotel,"1030",2002-08-14,2100-01-01,40.350000000000001,-106.379999999999995,"10960",Snow Water Equivalent,CO,Grand,Rabbit Ears Creek-Troublesome Creek,Arapaho Ridge,http://www.wcc.nrcs.usda.gov/nwcc/site?sitenum=1030,06J08S,ARPC2,8.000000000000000
snotel,"322",1979-10-01,2100-01-01,40.310000000000002,-105.640000000000001,"9500",Snow Water Equivalent,CO,Larimer,Glacier Creek,Bear Lake,http://www.wcc.nrcs.usda.gov/nwcc/site?sitenum=322,05J39S,BLKC2,8.000000000000000
snotel,"1061",2004-10-01,2100-01-01,40.060000000000002,-107.010000000000005,"9080",Snow Water Equivalent,CO,Routt,Yamcolo Reservoir-Bear River,Bear River,http://www.wcc.nrcs.usda.gov/nwcc/site?sitenum=1061,07J03S,BRRC2,8.000000000000000
snotel,"327",1979-10-01,2100-01-01,37.710000000000001,-107.510000000000005,"11600",Snow Water Equivalent,CO,Mineral,Bear Creek-Rio Grande,Beartown,http://www.wcc.nrcs.usda.gov/nwcc/site?sitenum=327,07M32S,BRTC2,8.000000000000000
snotel,"1041",2002-11-15,2100-01-01,39.600000000000001,-106.510000000000005,"8500",Snow Water Equivalent,CO,Eagle,Beaver Creek-Eagle Creek,Beaver Ck Village,http://www.wcc.nrcs.usda.gov/nwcc/site?sitenum=1041,06K45S,BCVC2,8.000000000000000
snotel,"335",1978-10-01,2100-01-01,39.799999999999997,-105.780000000000001,"11300",Snow Water Equivalent,CO,Grand,Upper Fraser River,Berthoud Summit,http://www.wcc.nrcs.usda.gov/nwcc/site?sitenum=335,05K14S,BTSC2,8.000000000000000
snotel,"345",1985-10-01,2100-01-01,39.759999999999998,-107.359999999999999,"10880",Snow Water Equivalent,CO,Garfield,Headwaters Deep Creek,Bison Lake,http://www.wcc.nrcs.usda.gov/nwcc/site?sitenum=345,07K12S,BLSC2,8.000000000000000
snotel,"1185",2011-07-28,2100-01-01,37.789999999999999,-108.180000000000007,"11580",Snow Water Equivalent,CO,Dolores,Fish Creek,Black Mesa,http://www.wcc.nrcs.usda.gov/nwcc/site?sitenum=1185,08M12S,,8.000000000000000
snotel,"1161",2010-10-01,2100-01-01,40.890000000000001,-105.659999999999997,"8920",Snow Water Equivalent,CO,Larimer,Sheep Creek-North Fork Cache La Poudre Creek,Black Mountain,http://www.wcc.nrcs.usda.gov/nwcc/site?sitenum=1161,05J28S,BMNC2,8.000000000000000
snotel,"369",1979-10-01,2100-01-01,39.090000000000003,-106.540000000000006,"10600",Snow Water Equivalent,CO,Lake,North Fork Lake Creek,Brumley,http://www.wcc.nrcs.usda.gov/nwcc/site?sitenum=369,06K40S,BRMC2,8.000000000000000
snotel,"938",1998-08-10,2100-01-01,39.299999999999997,-106.109999999999999,"11150",Snow Water Equivalent,CO,Park,Headwaters Middle Fork South Platte River,Buckskin Joe,http://www.wcc.nrcs.usda.gov/nwcc/site?sitenum=938,06K16S,BUCC2,8.000000000000000
snotel,"913",1995-09-15,2100-01-01,40.229999999999997,-106.599999999999994,"9240",Snow Water Equivalent,CO,Grand,Red Dirt Creek,Buffalo Park,http://www.wcc.nrcs.usda.gov/nwcc/site?sitenum=913,06J18S,BUFC2,8.000000000000000
snotel,"378",1978-10-01,2100-01-01,39.880000000000003,-107.599999999999994,"9400",Snow Water Equivalent,CO,Rio Blanco,North Elk Creek,Burro Mountain,http://www.wcc.nrcs.usda.gov/nwcc/site?sitenum=378,07K02S,BURC2,8.000000000000000
snotel,"380",1979-10-01,2100-01-01,38.890000000000001,-106.950000000000003,"10160",Snow Water Equivalent,CO,Gunnison,Washington Gulch-Slate River,Butte,http://www.wcc.nrcs.usda.gov/nwcc/site?sitenum=380,06L11S,BUTC2,8.000000000000000
snotel,"386",1978-10-01,2100-01-01,37.649999999999999,-107.810000000000002,"8880",Snow Water Equivalent,CO,San Juan,Headwaters Cascade Creek,Cascade,http://www.wcc.nrcs.usda.gov/nwcc/site?sitenum=386,07M05S,CSCC2,8.000000000000000
snotel,"387",1990-10-01,2100-01-01,37.659999999999997,-107.799999999999997,"8920",Snow Water Equivalent,CO,San Juan,Headwaters Cascade Creek,Cascade #2,http://www.wcc.nrcs.usda.gov/nwcc/site?sitenum=387,07M35S,CADC2,8.000000000000000
snotel,"1101",2007-09-07,2100-01-01,39.259999999999998,-106.629999999999995,"10110",Snow Water Equivalent,CO,Pitkin,Deeds Creek-Fryingpan River,Chapman Tunnel,http://www.wcc.nrcs.usda.gov/nwcc/site?sitenum=1101,06K46S,HAPC2,8.000000000000000
snotel,"1059",2004-09-10,2100-01-01,38.159999999999997,-106.599999999999994,"10020",Snow Water Equivalent,CO,Saguache,Luders Creek,Cochetopa Pass,http://www.wcc.nrcs.usda.gov/nwcc/site?sitenum=1059,06L06S,CZSC2,8.000000000000000
snotel,"408",1978-10-01,2100-01-01,40.390000000000001,-106.599999999999994,"9160",Snow Water Equivalent,CO,Jackson,Upper Grizzly Creek,Columbine,http://www.wcc.nrcs.usda.gov/nwcc/site?sitenum=408,06J03S,COLC2,8.000000000000000
snotel,"409",1985-10-01,2100-01-01,38.420000000000002,-108.379999999999995,"9400",Snow Water Equivalent,CO,Montrose,Potter Creek,Columbine Pass,http://www.wcc.nrcs.usda.gov/nwcc/site?sitenum=409,08L02S,CPSC2,8.000000000000000
snotel,"904",1994-08-30,2100-01-01,37.439999999999998,-108.019999999999996,"10785",Snow Water Equivalent,CO,La Plata,Headwaters La Plata River,Columbus Basin,http://www.wcc.nrcs.usda.gov/nwcc/site?sitenum=904,08M10S,CMBC2,8.000000000000000
snotel,"412",1979-10-01,2100-01-01,40.210000000000001,-105.569999999999993,"8600",Snow Water Equivalent,CO,Boulder,Headwaters North Saint Vrain Creek,Copeland Lake,http://www.wcc.nrcs.usda.gov/nwcc/site?sitenum=412,05J18S,COPC2,8.000000000000000
snotel,"415",1978-10-01,2100-01-01,39.490000000000002,-106.170000000000002,"10550",Snow Water Equivalent,CO,Summit,West Tenmile Creek,Copper Mountain,http://www.wcc.nrcs.usda.gov/nwcc/site?sitenum=415,06K24S,CPMC2,8.000000000000000
snotel,"426",1985-10-01,2100-01-01,40.170000000000002,-107.060000000000002,"9100",Snow Water Equivalent,CO,Rio Blanco,Outlet Hunt Creek,Crosho,http://www.wcc.nrcs.usda.gov/nwcc/site?sitenum=426,07J04S,CRSC2,8.000000000000000
snotel,"430",1978-10-01,2100-01-01,37.210000000000001,-105.200000000000003,"10500",Snow Water Equivalent,CO,Costilla,Headwaters Culebra Creek,Culebra #2,http://www.wcc.nrcs.usda.gov/nwcc/site?sitenum=430,05M03S,CULC2,8.000000000000000
snotel,"431",1979-10-01,2100-01-01,37.020000000000003,-106.450000000000003,"10040",Snow Water Equivalent,CO,Conejos,Wolf Creek,Cumbres Trestle,http://www.wcc.nrcs.usda.gov/nwcc/site?sitenum=431,06M22S,CUMC2,8.000000000000000
snotel,"438",1978-10-01,2100-01-01,40.810000000000002,-105.769999999999996,"10220",Snow Water Equivalent,CO,Larimer,North Fork Cache La Poudre River-Panhandle Creek,Deadman Hill,http://www.wcc.nrcs.usda.gov/nwcc/site?sitenum=438,05J06S,DDMC2,8.000000000000000
snotel,"457",1979-10-01,2100-01-01,40.530000000000001,-106.780000000000001,"8400",Snow Water Equivalent,CO,Routt,City of Steamboat Springs-Yampa River,Dry Lake,http://www.wcc.nrcs.usda.gov/nwcc/site?sitenum=457,06J01S,DRLC2,8.000000000000000
snotel,"936",1998-08-10,2100-01-01,39.659999999999997,-105.590000000000003,"10600",Snow Water Equivalent,CO,Clear Creek,Vance Creek,Echo Lake,http://www.wcc.nrcs.usda.gov/nwcc/site?sitenum=936,05K27S,ECLC2,8.000000000000000
snotel,"465",1985-10-01,2100-01-01,37.789999999999999,-108.019999999999996,"10000",Snow Water Equivalent,CO,Dolores,Cayton Valley-Dolores River,El Diente Peak,http://www.wcc.nrcs.usda.gov/nwcc/site?sitenum=465,08M06S,EDSC2,8.000000000000000
snotel,"467",1978-10-01,2100-01-01,40.850000000000001,-106.969999999999999,"8700",Snow Water Equivalent,CO,Routt,Steamboat Lake,Elk River,http://www.wcc.nrcs.usda.gov/nwcc/site?sitenum=467,06J15S,ELKC2,8.000000000000000
snotel,"1120",2009-08-07,2100-01-01,39.859999999999999,-106.420000000000002,"10520",Snow Water Equivalent,CO,Summit,Deep Creek-Blue River,Elliot Ridge,http://www.wcc.nrcs.usda.gov/nwcc/site?sitenum=1120,06K29S,ELRC2,8.000000000000000
snotel,"1186",2011-07-28,2100-01-01,39.869999999999997,-105.870000000000005,"11150",Snow Water Equivalent,CO,Grand,Saint Louis Creek,Fool Creek,http://www.wcc.nrcs.usda.gov/nwcc/site?sitenum=1186,05K30S,FCVC2,8.000000000000000
snotel,"485",1979-10-01,2100-01-01,39.380000000000003,-106.200000000000003,"11400",Snow Water Equivalent,CO,Summit,Upper Tenmile Creek,Fremont Pass,http://www.wcc.nrcs.usda.gov/nwcc/site?sitenum=485,06K08S,FMTC2,8.000000000000000
snotel,"1057",2004-08-02,2100-01-01,38.880000000000003,-105.069999999999993,"11460",Snow Water Equivalent,CO,Teller,Headwaters Fountain Creek,Glen Cove,http://www.wcc.nrcs.usda.gov/nwcc/site?sitenum=1057,05L11S,GLNC2,8.000000000000000
snotel,"1058",2004-09-10,2100-01-01,37.469999999999999,-106.540000000000006,"11620",Snow Water Equivalent,CO,Rio Grande,East Fork Pinos Creek,Grayback,http://www.wcc.nrcs.usda.gov/nwcc/site?sitenum=1058,06M21S,GYBC2,8.000000000000000
snotel,"505",1979-10-01,2100-01-01,39.649999999999999,-105.870000000000005,"11100",Snow Water Equivalent,CO,Summit,North Fork Snake River,Grizzly Peak,http://www.wcc.nrcs.usda.gov/nwcc/site?sitenum=505,05K09S,GZPC2,8.000000000000000
snotel,"1102",2007-08-28,2100-01-01,38.289999999999999,-105.849999999999994,"10720",Snow Water Equivalent,CO,Saguache,Piney Creek-San Luis Creek,Hayden Pass,http://www.wcc.nrcs.usda.gov/nwcc/site?sitenum=1102,05L12S,HPAC2,8.000000000000000
snotel,"1187",2011-07-28,2100-01-01,40.039999999999999,-105.750000000000000,"10620",Snow Water Equivalent,CO,Grand,Meadows Creek-Ranch Creek,High Lonesome,http://www.wcc.nrcs.usda.gov/nwcc/site?sitenum=1187,05J46S,HLNC2,8.000000000000000
snotel,"531",1979-10-01,2100-01-01,39.359999999999999,-106.060000000000002,"11400",Snow Water Equivalent,CO,Park,Headwaters Blue River,Hoosier Pass,http://www.wcc.nrcs.usda.gov/nwcc/site?sitenum=531,06K01S,HOOC2,8.000000000000000
snotel,"1122",2008-10-01,2100-01-01,40.579999999999998,-105.629999999999995,"9380",Snow Water Equivalent,CO,Larimer,Beaver Creek,Hourglass Lake,http://www.wcc.nrcs.usda.gov/nwcc/site?sitenum=1122,05J11S,HRLC2,8.000000000000000
snotel,"538",1979-10-01,2100-01-01,37.930000000000000,-107.680000000000007,"9800",Snow Water Equivalent,CO,Ouray,Red Mountain Creek,Idarado,http://www.wcc.nrcs.usda.gov/nwcc/site?sitenum=538,07M27S,IDRC2,8.000000000000000
snotel,"542",1979-10-01,2100-01-01,39.079999999999998,-106.609999999999999,"10600",Snow Water Equivalent,CO,Pitkin,Lincoln Creek,Independence Pass,http://www.wcc.nrcs.usda.gov/nwcc/site?sitenum=542,06K04S,IDPC2,8.000000000000000
snotel,"547",1991-10-01,2100-01-01,39.289999999999999,-106.549999999999997,"10400",Snow Water Equivalent,CO,Pitkin,Headwaters Fryingpan River,Ivanhoe,http://www.wcc.nrcs.usda.gov/nwcc/site?sitenum=547,06K10S,IVHC2,8.000000000000000
snotel,"935",1998-08-10,2100-01-01,39.570000000000000,-105.799999999999997,"10960",Snow Water Equivalent,CO,Clear Creek,Geneva Creek,Jackwhacker Gulch,http://www.wcc.nrcs.usda.gov/nwcc/site?sitenum=935,05K26S,JWGC2,8.000000000000000
snotel,"551",1978-10-01,2100-01-01,40.530000000000001,-105.890000000000001,"10120",Snow Water Equivalent,CO,Larimer,Joe Wright Creek,Joe Wright,http://www.wcc.nrcs.usda.gov/nwcc/site?sitenum=551,05J37S,JWRC2,8.000000000000000
snotel,"970",1999-09-30,2100-01-01,39.759999999999998,-105.909999999999997,"10400",Snow Water Equivalent,CO,Grand,Headwaters Williams Fork,Jones Pass,http://www.wcc.nrcs.usda.gov/nwcc/site?sitenum=970,05K21S,JNPC2,8.000000000000000
snotel,"556",1979-10-01,2100-01-01,39.320000000000000,-106.609999999999999,"9600",Snow Water Equivalent,CO,Pitkin,Deeds Creek-Fryingpan River,Kiln,http://www.wcc.nrcs.usda.gov/nwcc/site?sitenum=556,06K30S,KLNC2,8.000000000000000
snotel,"564",1978-10-01,2100-01-01,39.939999999999998,-105.590000000000003,"9700",Snow Water Equivalent,CO,Gilpin,Middle Boulder Creek,Lake Eldora,http://www.wcc.nrcs.usda.gov/nwcc/site?sitenum=564,05J41S,LELC2,8.000000000000000
snotel,"565",1978-10-01,2100-01-01,40.409999999999997,-105.819999999999993,"10700",Snow Water Equivalent,CO,Grand,Headwaters Colorado River,Lake Irene,http://www.wcc.nrcs.usda.gov/nwcc/site?sitenum=565,05J10S,LKIC2,8.000000000000000
snotel,"580",1979-10-01,2100-01-01,37.380000000000003,-106.549999999999997,"11000",Snow Water Equivalent,CO,Conejos,Headwaters Alamosa River,Lily Pond,http://www.wcc.nrcs.usda.gov/nwcc/site?sitenum=580,06M23S,LPDC2,8.000000000000000
snotel,"586",1979-10-01,2100-01-01,37.799999999999997,-107.920000000000002,"10200",Snow Water Equivalent,CO,Dolores,Headwaters Dolores River,Lizard Head Pass,http://www.wcc.nrcs.usda.gov/nwcc/site?sitenum=586,07M29S,LIZC2,8.000000000000000
snotel,"589",1979-10-01,2100-01-01,37.890000000000001,-108.200000000000003,"9600",Snow Water Equivalent,CO,San Miguel,Headwaters Beaver Creek,Lone Cone,http://www.wcc.nrcs.usda.gov/nwcc/site?sitenum=589,08M07S,LNCC2,8.000000000000000
snotel,"1123",2008-10-16,2100-01-01,40.509999999999998,-105.769999999999996,"9980",Snow Water Equivalent,CO,Larimer,La Poudre Pass Creek,Long Draw Resv,http://www.wcc.nrcs.usda.gov/nwcc/site?sitenum=1123,05J27S,LRVC2,8.000000000000000
snotel,"940",1998-08-07,2100-01-01,40.820000000000000,-106.750000000000000,"9320",Snow Water Equivalent,CO,Routt,Outlet North Fork Elk Creek,Lost Dog,http://www.wcc.nrcs.usda.gov/nwcc/site?sitenum=940,06J38S,LOTC2,8.000000000000000
snotel,"602",1991-10-01,2100-01-01,39.670000000000002,-105.900000000000006,"11400",Snow Water Equivalent,CO,Clear Creek,Headwaters Clear Creek,Loveland Basin,http://www.wcc.nrcs.usda.gov/nwcc/site?sitenum=602,05K05S,LBAC2,8.000000000000000
snotel,"607",1979-10-01,2100-01-01,40.079999999999998,-106.670000000000002,"8880",Snow Water Equivalent,CO,Routt,Headwaters Rock Creek,Lynx Pass,http://www.wcc.nrcs.usda.gov/nwcc/site?sitenum=607,06J06S,LYNC2,8.000000000000000
snotel,"905",1994-08-30,2100-01-01,37.430000000000000,-108.170000000000002,"10000",Snow Water Equivalent,CO,Montezuma,West Mancos River,Mancos,http://www.wcc.nrcs.usda.gov/nwcc/site?sitenum=905,08M02S,MNCC2,8.000000000000000
snotel,"618",1979-10-01,2100-01-01,39.130000000000003,-107.290000000000006,"9500",Snow Water Equivalent,CO,Pitkin,Lee Creek,Mc Clure Pass,http://www.wcc.nrcs.usda.gov/nwcc/site?sitenum=618,07K09S,MCPC2,8.000000000000000
snotel,"1040",2002-10-01,2100-01-01,39.600000000000001,-106.540000000000006,"9480",Snow Water Equivalent,CO,Eagle,June Creek-Eagle River,Mccoy Park,http://www.wcc.nrcs.usda.gov/nwcc/site?sitenum=1040,06K44S,MCYC2,8.000000000000000
snotel,"914",1995-10-01,2100-01-01,37.850000000000001,-105.439999999999998,"9649",Snow Water Equivalent,CO,Saguache,Medano Creek,Medano Pass,http://www.wcc.nrcs.usda.gov/nwcc/site?sitenum=914,05M16S,MDPC2,8.000000000000000
snotel,"622",1985-10-01,2100-01-01,39.060000000000002,-108.060000000000002,"10000",Snow Water Equivalent,CO,Mesa,Coon Creek,Mesa Lakes,http://www.wcc.nrcs.usda.gov/nwcc/site?sitenum=622,08K04S,MESC2,8.000000000000000
snotel,"937",1998-08-10,2100-01-01,39.439999999999998,-105.909999999999997,"10600",Snow Water Equivalent,CO,Park,Michigan Creek,Michigan Creek,http://www.wcc.nrcs.usda.gov/nwcc/site?sitenum=937,05K28S,MIHC2,8.000000000000000
snotel,"624",1979-10-01,2100-01-01,37.619999999999997,-107.030000000000001,"11250",Snow Water Equivalent,CO,Mineral,Headwaters Red Mountain Creek,Middle Creek,http://www.wcc.nrcs.usda.gov/nwcc/site?sitenum=624,07M21S,MDLC2,8.000000000000000
snotel,"1014",2001-09-19,2100-01-01,39.799999999999997,-106.030000000000001,"8940",Snow Water Equivalent,CO,Grand,Headwaters Williams Fork,Middle Fork Camp,http://www.wcc.nrcs.usda.gov/nwcc/site?sitenum=1014,06K12S,MFKC2,8.000000000000000
snotel,"629",1978-10-01,2100-01-01,37.850000000000001,-107.730000000000004,"10040",Snow Water Equivalent,CO,San Juan,Mineral Creek,Mineral Creek,http://www.wcc.nrcs.usda.gov/nwcc/site?sitenum=629,07M14S,MINC2,8.000000000000000
snotel,"632",1985-10-01,2100-01-01,37.750000000000000,-107.689999999999998,"10500",Snow Water Equivalent,CO,San Juan,Tenmile Creek-Animas River,Molas Lake,http://www.wcc.nrcs.usda.gov/nwcc/site?sitenum=632,07M12S,MLSC2,8.000000000000000
snotel,"1124",2008-10-01,2100-01-01,37.969999999999999,-106.560000000000002,"11140",Snow Water Equivalent,CO,Saguache,California Gulch,Moon Pass,http://www.wcc.nrcs.usda.gov/nwcc/site?sitenum=1124,06M26S,MOPC2,8.000000000000000
snotel,"658",1985-10-01,2100-01-01,39.299999999999997,-106.609999999999999,"8700",Snow Water Equivalent,CO,Pitkin,Deeds Creek-Fryingpan River,Nast Lake,http://www.wcc.nrcs.usda.gov/nwcc/site?sitenum=658,06K06S,NSSC2,8.000000000000000
snotel,"1031",2002-09-09,2100-01-01,40.399999999999999,-105.959999999999994,"10280",Snow Water Equivalent,CO,Jackson,Jack Creek,Never Summer,http://www.wcc.nrcs.usda.gov/nwcc/site?sitenum=1031,06J27S,NEVC2,8.000000000000000
snotel,"663",1979-10-01,2100-01-01,40.039999999999999,-105.540000000000006,"9910",Snow Water Equivalent,CO,Boulder,North Boulder Creek,Niwot,http://www.wcc.nrcs.usda.gov/nwcc/site?sitenum=663,05J42S,NIWC2,8.000000000000000
snotel,"669",1984-10-01,2100-01-01,39.079999999999998,-107.140000000000001,"9200",Snow Water Equivalent,CO,Gunnison,Yule Creek-Crystal River,North Lost Trail,http://www.wcc.nrcs.usda.gov/nwcc/site?sitenum=669,07K01S,NLSC2,8.000000000000000
snotel,"675",1988-10-01,2100-01-01,39.090000000000003,-107.629999999999995,"9840",Snow Water Equivalent,CO,Delta,Cow Creek,Overland Res.,http://www.wcc.nrcs.usda.gov/nwcc/site?sitenum=675,07K14S,OVRC2,8.000000000000000
snotel,"680",1979-10-01,2100-01-01,38.820000000000000,-106.590000000000003,"9600",Snow Water Equivalent,CO,Gunnison,Taylor Park Reservoir,Park Cone,http://www.wcc.nrcs.usda.gov/nwcc/site?sitenum=680,06L02S,PKCC2,8.000000000000000
snotel,"682",1978-10-01,2100-01-01,39.049999999999997,-107.870000000000005,"9960",Snow Water Equivalent,CO,Delta,Surface Creek,Park Reservoir,http://www.wcc.nrcs.usda.gov/nwcc/site?sitenum=682,07K06S,PRVC2,8.000000000000000
snotel,"688",1979-10-01,2100-01-01,40.399999999999999,-105.849999999999994,"9030",Snow Water Equivalent,CO,Grand,Headwaters Colorado River,Phantom Valley,http://www.wcc.nrcs.usda.gov/nwcc/site?sitenum=688,05J04S,PHTC2,8.000000000000000
snotel,"701",1978-10-01,2100-01-01,38.490000000000002,-106.340000000000003,"10760",Snow Water Equivalent,CO,Gunnison,Porphyry Creek-Tomichi Creek,Porphyry Creek,http://www.wcc.nrcs.usda.gov/nwcc/site?sitenum=701,06L03S,PRPC2,8.000000000000000
snotel,"709",1985-10-01,2100-01-01,40.369999999999997,-106.739999999999995,"9400",Snow Water Equivalent,CO,Routt,Harrison Creek,Rabbit Ears,http://www.wcc.nrcs.usda.gov/nwcc/site?sitenum=709,06J09S,RESC2,8.000000000000000
snotel,"1032",2002-09-09,2100-01-01,40.710000000000001,-106.010000000000005,"9020",Snow Water Equivalent,CO,Jackson,Middle Canadian River,Rawah,http://www.wcc.nrcs.usda.gov/nwcc/site?sitenum=1032,06J20S,RAWC2,8.000000000000000
snotel,"713",1979-10-01,2100-01-01,37.890000000000001,-107.709999999999994,"11200",Snow Water Equivalent,CO,Ouray,Mineral Creek,Red Mountain Pass,http://www.wcc.nrcs.usda.gov/nwcc/site?sitenum=713,07M33S,RMPC2,8.000000000000000
snotel,"717",1985-10-01,2100-01-01,40.109999999999999,-107.290000000000006,"10340",Snow Water Equivalent,CO,Rio Blanco,Snell Creek-North Fork White River,Ripple Creek,http://www.wcc.nrcs.usda.gov/nwcc/site?sitenum=717,07J05S,RCPC2,8.000000000000000
snotel,"718",1979-10-01,2100-01-01,40.880000000000003,-106.049999999999997,"9700",Snow Water Equivalent,CO,Larimer,La Garde Creek,Roach,http://www.wcc.nrcs.usda.gov/nwcc/site?sitenum=718,06J12S,ROAC2,8.000000000000000
snotel,"939",1998-08-10,2100-01-01,39.030000000000001,-106.079999999999998,"10360",Snow Water Equivalent,CO,Park,Headwaters South Fork South Platte River,Rough And Tumble,http://www.wcc.nrcs.usda.gov/nwcc/site?sitenum=939,06K43S,ROUC2,8.000000000000000
snotel,"1100",2007-08-30,2100-01-01,38.700000000000003,-106.370000000000005,"10540",Snow Water Equivalent,CO,Chaffee,Headwaters Chalk Creek,Saint Elmo,http://www.wcc.nrcs.usda.gov/nwcc/site?sitenum=1100,06L05S,CTEC2,8.000000000000000
snotel,"1128",2008-10-01,2100-01-01,38.289999999999999,-106.370000000000005,"11530",Snow Water Equivalent,CO,Saguache,Middle Creek,Sargents Mesa,http://www.wcc.nrcs.usda.gov/nwcc/site?sitenum=1128,06L13S,SGMC2,8.000000000000000
snotel,"1251",2014-09-23,2100-01-01,40.140000000000001,-105.590000000000003,"9620",Snow Water Equivalent,CO,Boulder,Middle Saint Vrain Creek,Sawtooth,http://www.wcc.nrcs.usda.gov/nwcc/site?sitenum=1251,05J45S,SATC2,8.000000000000000
snotel,"737",1984-10-01,2100-01-01,39.020000000000003,-107.049999999999997,"10700",Snow Water Equivalent,CO,Gunnison,South Fork Crystal River,Schofield Pass,http://www.wcc.nrcs.usda.gov/nwcc/site?sitenum=737,07K11S,SOSC2,8.000000000000000
snotel,"739",1985-10-01,2100-01-01,37.649999999999999,-108.010000000000005,"9100",Snow Water Equivalent,CO,Dolores,Scotch Creek-Dolores River,Scotch Creek,http://www.wcc.nrcs.usda.gov/nwcc/site?sitenum=739,08M08S,SHSC2,8.000000000000000
snotel,"1060",2004-10-01,2100-01-01,37.500000000000000,-108.109999999999999,"10720",Snow Water Equivalent,CO,Montezuma,Bear Creek,Sharkstooth,http://www.wcc.nrcs.usda.gov/nwcc/site?sitenum=1060,08M04S,SKZC2,8.000000000000000
snotel,"762",1979-10-01,2100-01-01,37.990000000000002,-107.200000000000003,"11440",Snow Water Equivalent,CO,Hinsdale,Headwaters Cebolla Creek,Slumgullion,http://www.wcc.nrcs.usda.gov/nwcc/site?sitenum=762,07M30S,SLMC2,8.000000000000000
snotel,"773",1990-10-01,2100-01-01,37.969999999999999,-105.540000000000006,"10800",Snow Water Equivalent,CO,Custer,Colony Creek-Grape Creek,South Colony,http://www.wcc.nrcs.usda.gov/nwcc/site?sitenum=773,05M13S,SCYC2,8.000000000000000
snotel,"780",1985-10-01,2100-01-01,37.700000000000003,-107.780000000000001,"10660",Snow Water Equivalent,CO,San Juan,Lime Creek,Spud Mountain,http://www.wcc.nrcs.usda.gov/nwcc/site?sitenum=780,07M11S,SPSC2,8.000000000000000
snotel,"793",1985-10-01,2100-01-01,40.229999999999997,-105.920000000000002,"8720",Snow Water Equivalent,CO,Grand,Stillwater Creek,Stillwater Creek,http://www.wcc.nrcs.usda.gov/nwcc/site?sitenum=793,05J12S,SCSC2,8.000000000000000
snotel,"797",1985-10-01,2100-01-01,37.479999999999997,-107.629999999999995,"11200",Snow Water Equivalent,CO,San Juan,Virginia Gulch-Florida River,Stump Lakes,http://www.wcc.nrcs.usda.gov/nwcc/site?sitenum=797,07M34S,STPC2,8.000000000000000
snotel,"802",1979-10-01,2100-01-01,39.719999999999999,-106.159999999999997,"9400",Snow Water Equivalent,CO,Summit,Rock Creek-Blue River,Summit Ranch,http://www.wcc.nrcs.usda.gov/nwcc/site?sitenum=802,06K14S,SUMC2,8.000000000000000
snotel,"825",1978-10-01,2100-01-01,40.539999999999999,-106.680000000000007,"10500",Snow Water Equivalent,CO,Routt,Fish Creek,Tower,http://www.wcc.nrcs.usda.gov/nwcc/site?sitenum=825,06J29S,TOWC2,8.000000000000000
snotel,"827",1985-10-01,2100-01-01,40.000000000000000,-107.239999999999995,"9700",Snow Water Equivalent,CO,Garfield,Headwaters North Fork White River,Trapper Lake,http://www.wcc.nrcs.usda.gov/nwcc/site?sitenum=827,07K13S,TLSC2,8.000000000000000
snotel,"829",1988-10-01,2100-01-01,37.350000000000001,-105.230000000000004,"10860",Snow Water Equivalent,CO,Costilla,North Fork Trinchera Creek,Trinchera,http://www.wcc.nrcs.usda.gov/nwcc/site?sitenum=829,05M08S,TCHC2,8.000000000000000
snotel,"838",1978-10-01,2100-01-01,40.030000000000001,-105.579999999999998,"10300",Snow Water Equivalent,CO,Boulder,North Boulder Creek,University Camp,http://www.wcc.nrcs.usda.gov/nwcc/site?sitenum=838,05J08S,UVCC2,8.000000000000000
snotel,"839",1985-10-01,2100-01-01,37.719999999999999,-107.260000000000005,"9400",Snow Water Equivalent,CO,Hinsdale,Rio Grande Reservoir,Upper Rio Grande,http://www.wcc.nrcs.usda.gov/nwcc/site?sitenum=839,07M16S,URGC2,8.000000000000000
snotel,"840",1978-10-01,2100-01-01,37.490000000000002,-106.840000000000003,"10200",Snow Water Equivalent,CO,Mineral,Wolf Creek,Upper San Juan,http://www.wcc.nrcs.usda.gov/nwcc/site?sitenum=840,06M03S,USJC2,8.000000000000000
snotel,"1141",2009-08-26,2100-01-01,38.990000000000002,-106.750000000000000,"10640",Snow Water Equivalent,CO,Gunnison,Upper Taylor River,Upper Taylor,http://www.wcc.nrcs.usda.gov/nwcc/site?sitenum=1141,06L14S,UPTC2,8.000000000000000
snotel,"1005",2000-08-16,2100-01-01,37.609999999999999,-105.370000000000005,"10650",Snow Water Equivalent,CO,Costilla,East Fork Ute Creek,Ute Creek,http://www.wcc.nrcs.usda.gov/nwcc/site?sitenum=1005,05M17S,UTCC2,8.000000000000000
snotel,"842",1978-10-01,2100-01-01,39.619999999999997,-106.379999999999995,"10300",Snow Water Equivalent,CO,Eagle,Middle Gore Creek,Vail Mountain,http://www.wcc.nrcs.usda.gov/nwcc/site?sitenum=842,06K39S,VLMC2,8.000000000000000
snotel,"843",1985-10-01,2100-01-01,37.490000000000002,-107.510000000000005,"10880",Snow Water Equivalent,CO,La Plata,Indian Creek-Los Pinos River,Vallecito,http://www.wcc.nrcs.usda.gov/nwcc/site?sitenum=843,07M31S,VALC2,8.000000000000000
snotel,"1188",2011-07-28,2100-01-01,37.880000000000003,-107.359999999999999,"11100",Snow Water Equivalent,CO,Hinsdale,Lake Sanc Cristobal-Lake Fork,Wager Gulch,http://www.wcc.nrcs.usda.gov/nwcc/site?sitenum=1188,07M37S,WRGC2,8.000000000000000
snotel,"1160",2010-10-01,2100-01-01,37.520000000000003,-107.319999999999993,"10740",Snow Water Equivalent,CO,Archuleta,Sand Creek,Weminuche Creek,http://www.wcc.nrcs.usda.gov/nwcc/site?sitenum=1160,07M36S,WMNC2,8.000000000000000
snotel,"857",1979-10-01,2100-01-01,37.210000000000001,-105.120000000000005,"10220",Snow Water Equivalent,CO,Las Animas,North Fork Purgatoire River,Whiskey Ck,http://www.wcc.nrcs.usda.gov/nwcc/site?sitenum=857,05M14S,WSKC2,8.000000000000000
snotel,"1042",2002-12-13,2100-01-01,40.200000000000003,-105.599999999999994,"9560",Snow Water Equivalent,CO,Boulder,Headwaters North Saint Vrain Creek,Wild Basin,http://www.wcc.nrcs.usda.gov/nwcc/site?sitenum=1042,05J05S,WLBC2,8.000000000000000
snotel,"869",1978-10-01,2100-01-01,40.350000000000001,-106.090000000000003,"9540",Snow Water Equivalent,CO,Grand,Upper Willow Creek,Willow Creek Pass,http://www.wcc.nrcs.usda.gov/nwcc/site?sitenum=869,06J05S,WLLC2,8.000000000000000
snotel,"870",1979-10-01,2100-01-01,40.430000000000000,-105.730000000000004,"10700",Snow Water Equivalent,CO,Larimer,Fall River,Willow Park,http://www.wcc.nrcs.usda.gov/nwcc/site?sitenum=870,05J40S,WPRC2,8.000000000000000
snotel,"874",1985-10-01,2100-01-01,37.479999999999997,-106.799999999999997,"11000",Snow Water Equivalent,CO,Mineral,Wolf Creek,Wolf Creek Summit,http://www.wcc.nrcs.usda.gov/nwcc/site?sitenum=874,06M17S,WCSC2,8.000000000000000
snotel,"1033",2002-08-14,2100-01-01,40.789999999999999,-106.599999999999994,"9340",Snow Water Equivalent,CO,Jackson,Middle North Fork North Platte River,Zirkel,http://www.wcc.nrcs.usda.gov/nwcc/site?sitenum=1033,06J19S,ZIRC2,8.000000000000000
snotel,"306",1978-10-01,2100-01-01,43.759999999999998,-115.239999999999995,"7580",Snow Water Equivalent,ID,Elmore,North and Middle Forks Boise,Atlanta Summit,http://www.wcc.nrcs.usda.gov/nwcc/site?sitenum=306,15F04S,ATAI1,8.000000000000000
snotel,"312",1979-10-01,2100-01-01,44.299999999999997,-115.230000000000004,"7040",Snow Water Equivalent,ID,Boise,Canyon Creek,Banner Summit,http://www.wcc.nrcs.usda.gov/nwcc/site?sitenum=312,15E11S,BASI1,8.000000000000000
snotel,"319",1979-10-01,2100-01-01,44.950000000000003,-116.140000000000001,"5350",Snow Water Equivalent,ID,Adams,Upper Goose Creek,Bear Basin,http://www.wcc.nrcs.usda.gov/nwcc/site?sitenum=319,16E11S,BRBI1,8.000000000000000
snotel,"320",1979-10-01,2100-01-01,43.740000000000002,-113.939999999999998,"7900",Snow Water Equivalent,ID,Custer,Upper Star Hope Creek,Bear Canyon,http://www.wcc.nrcs.usda.gov/nwcc/site?sitenum=320,13F03S,BECI1,8.000000000000000
snotel,"323",1979-10-01,2100-01-01,48.310000000000002,-116.069999999999993,"5400",Snow Water Equivalent,ID,Bonner,Middle Lightning Creek,Bear Mountain,http://www.wcc.nrcs.usda.gov/nwcc/site?sitenum=323,16A08S,BRMI1,8.000000000000000
snotel,"324",1979-10-01,2100-01-01,44.609999999999999,-116.980000000000004,"6180",Snow Water Equivalent,ID,Washington,Upper Mann Creek,Bear Saddle,http://www.wcc.nrcs.usda.gov/nwcc/site?sitenum=324,16E10S,BSDI1,8.000000000000000
snotel,"338",1979-10-01,2100-01-01,44.630000000000003,-115.790000000000006,"6580",Snow Water Equivalent,ID,Valley,Curtis Creek,Big Creek Summit,http://www.wcc.nrcs.usda.gov/nwcc/site?sitenum=338,15E02S,BKSI1,8.000000000000000
snotel,"978",1999-09-21,2100-01-01,43.759999999999998,-116.099999999999994,"6340",Snow Water Equivalent,ID,Boise,Cottonwood Creek-Shafer Creek,Bogus Basin,http://www.wcc.nrcs.usda.gov/nwcc/site?sitenum=978,16F02S,BOGI1,8.000000000000000
snotel,"359",1979-10-01,2100-01-01,42.159999999999997,-114.189999999999998,"7500",Snow Water Equivalent,ID,Cassia,Upper Big Cottonwood Creek,Bostetter R.S.,http://www.wcc.nrcs.usda.gov/nwcc/site?sitenum=359,14G01S,BTRI1,8.000000000000000
snotel,"370",1986-10-01,2100-01-01,45.039999999999999,-116.129999999999995,"6250",Snow Water Equivalent,ID,Adams,Upper Goose Creek,Brundage Reservoir,http://www.wcc.nrcs.usda.gov/nwcc/site?sitenum=370,16D09S,BRRI1,8.000000000000000
snotel,"382",1991-10-01,2100-01-01,43.270000000000003,-115.349999999999994,"5710",Snow Water Equivalent,ID,Elmore,Sheep Creek-Camas Creek,Camas Creek Divide,http://www.wcc.nrcs.usda.gov/nwcc/site?sitenum=382,15F09S,CCDI1,8.000000000000000
snotel,"895",1993-06-23,2100-01-01,43.770000000000003,-114.420000000000002,"6440",Snow Water Equivalent,ID,Blaine,Eagle Creek-Big Wood River,Chocolate Gulch,http://www.wcc.nrcs.usda.gov/nwcc/site?sitenum=895,14F19S,CHOI1,8.000000000000000
snotel,"411",1983-10-01,2100-01-01,46.759999999999998,-115.299999999999997,"6280",Snow Water Equivalent,ID,Clearwater,Cold Springs Creek-North Fork Clearwater River,Cool Creek,http://www.wcc.nrcs.usda.gov/nwcc/site?sitenum=411,15C16S,COLI1,8.000000000000000
snotel,"423",1978-10-01,2100-01-01,44.289999999999999,-115.659999999999997,"5380",Snow Water Equivalent,ID,Valley,Deadwood River-Deadwood Reservoir,Cozy Cove,http://www.wcc.nrcs.usda.gov/nwcc/site?sitenum=423,15E08S,COZI1,8.000000000000000
snotel,"424",1979-10-01,2100-01-01,44.439999999999998,-111.989999999999995,"6860",Snow Water Equivalent,ID,Clark,Upper Camas Creek,Crab Creek,http://www.wcc.nrcs.usda.gov/nwcc/site?sitenum=424,11E37S,CRBI1,8.000000000000000
snotel,"425",1983-10-01,2100-01-01,46.560000000000002,-115.290000000000006,"5960",Snow Water Equivalent,ID,Clearwater,Middle Weitas Creek,Crater Meadows,http://www.wcc.nrcs.usda.gov/nwcc/site?sitenum=425,15C09S,CRAI1,8.000000000000000
snotel,"439",1978-10-01,2100-01-01,44.539999999999999,-115.560000000000002,"6860",Snow Water Equivalent,ID,Valley,Stratton Creek-Deadwood River,Deadwood Summit,http://www.wcc.nrcs.usda.gov/nwcc/site?sitenum=439,15E04S,DDSI1,8.000000000000000
snotel,"450",1979-10-01,2100-01-01,43.600000000000001,-114.670000000000002,"8420",Snow Water Equivalent,ID,Blaine,Placer Creek-Warm Springs Creek,Dollarhide Summit,http://www.wcc.nrcs.usda.gov/nwcc/site?sitenum=450,14F08S,DHDI1,8.000000000000000
snotel,"466",1982-10-01,2100-01-01,46.840000000000003,-116.120000000000005,"5690",Snow Water Equivalent,ID,Clearwater,Upper Elk Creek,Elk Butte,http://www.wcc.nrcs.usda.gov/nwcc/site?sitenum=466,16C20S,ELBI1,8.000000000000000
snotel,"471",1979-10-01,2100-01-01,42.359999999999999,-111.560000000000002,"7390",Snow Water Equivalent,ID,Bear Lake,Williams Creek,Emigrant Summit,http://www.wcc.nrcs.usda.gov/nwcc/site?sitenum=471,11G06S,EMSI1,8.000000000000000
snotel,"484",1978-10-01,2100-01-01,42.049999999999997,-111.599999999999994,"8170",Snow Water Equivalent,ID,Franklin,Upper Cub River,Franklin Basin,http://www.wcc.nrcs.usda.gov/nwcc/site?sitenum=484,11G32S,FBNI1,8.000000000000000
snotel,"489",1979-10-01,2100-01-01,43.880000000000003,-114.670000000000002,"7470",Snow Water Equivalent,ID,Blaine,Headwaters Big Wood River,Galena,http://www.wcc.nrcs.usda.gov/nwcc/site?sitenum=489,14F17S,GLNI1,8.000000000000000
snotel,"490",1978-10-01,2100-01-01,43.869999999999997,-114.709999999999994,"8780",Snow Water Equivalent,ID,Blaine,Headwaters Big Wood River,Galena Summit,http://www.wcc.nrcs.usda.gov/nwcc/site?sitenum=490,14F12S,GLSI1,8.000000000000000
snotel,"492",1979-10-01,2100-01-01,43.609999999999999,-113.930000000000007,"6560",Snow Water Equivalent,ID,Blaine,Upper Muldoon Creek,Garfield R.S.,http://www.wcc.nrcs.usda.gov/nwcc/site?sitenum=492,13F04S,GARI1,8.000000000000000
snotel,"493",1979-10-01,2100-01-01,42.409999999999997,-111.170000000000002,"6930",Snow Water Equivalent,ID,Bear Lake,Upper Montpelier Creek,Giveout,http://www.wcc.nrcs.usda.gov/nwcc/site?sitenum=493,11G33S,GIVI1,8.000000000000000
snotel,"496",1978-10-01,2100-01-01,43.950000000000003,-115.269999999999996,"5690",Snow Water Equivalent,ID,Elmore,Big Silver Creek-North Fork Boise River,Graham Guard Sta.,http://www.wcc.nrcs.usda.gov/nwcc/site?sitenum=496,15F14S,GGSI1,8.000000000000000
snotel,"520",1982-10-01,2100-01-01,46.479999999999997,-115.629999999999995,"5810",Snow Water Equivalent,ID,Clearwater,French Creek,Hemlock Butte,http://www.wcc.nrcs.usda.gov/nwcc/site?sitenum=520,15C06S,HEMI1,8.000000000000000
snotel,"988",2000-09-20,2100-01-01,48.890000000000001,-116.760000000000005,"5040",Snow Water Equivalent,ID,Boundary,Cow Creek,Hidden Lake,http://www.wcc.nrcs.usda.gov/nwcc/site?sitenum=988,16A12S,HDLI1,8.000000000000000
snotel,"524",1979-10-01,2100-01-01,44.020000000000003,-113.469999999999999,"8000",Snow Water Equivalent,ID,Custer,Upper Wet Creek,Hilts Creek,http://www.wcc.nrcs.usda.gov/nwcc/site?sitenum=524,13E27S,HLTI1,8.000000000000000
snotel,"534",1978-10-01,2100-01-01,42.320000000000000,-113.620000000000005,"7980",Snow Water Equivalent,ID,Cassia,Howell Creek,Howell Canyon,http://www.wcc.nrcs.usda.gov/nwcc/site?sitenum=534,13G01S,HWCI1,8.000000000000000
snotel,"535",1978-10-01,2100-01-01,47.530000000000001,-115.780000000000001,"4250",Snow Water Equivalent,ID,Shoshone,Canyon Creek-Upper South Fork Coeur d'Alene River,Humboldt Gulch,http://www.wcc.nrcs.usda.gov/nwcc/site?sitenum=535,15B21S,HUGI1,8.000000000000000
snotel,"537",1979-10-01,2100-01-01,43.710000000000001,-114.159999999999997,"7440",Snow Water Equivalent,ID,Blaine,Hyndman Creek,Hyndman,http://www.wcc.nrcs.usda.gov/nwcc/site?sitenum=537,14F16S,HYNI1,8.000000000000000
snotel,"546",1979-10-01,2100-01-01,44.420000000000002,-111.390000000000001,"6290",Snow Water Equivalent,ID,Fremont,Buffalo River,Island Park,http://www.wcc.nrcs.usda.gov/nwcc/site?sitenum=546,11E10S,ISPI1,8.000000000000000
snotel,"550",1979-10-01,2100-01-01,44.049999999999997,-115.439999999999998,"7070",Snow Water Equivalent,ID,Boise,Fivemile Creek-South Fork Payette River,Jackson Peak,http://www.wcc.nrcs.usda.gov/nwcc/site?sitenum=550,15E09S,JKPI1,8.000000000000000
snotel,"588",1982-10-01,2100-01-01,46.630000000000003,-114.579999999999998,"5240",Snow Water Equivalent,ID,Idaho,West Fork Lolo Creek,Lolo Pass,http://www.wcc.nrcs.usda.gov/nwcc/site?sitenum=588,14C05S,LPSI1,8.000000000000000
snotel,"1016",2001-10-01,2100-01-01,44.789999999999999,-116.090000000000003,"4890",Snow Water Equivalent,ID,Valley,Lake Fork Creek,Long Valley,http://www.wcc.nrcs.usda.gov/nwcc/site?sitenum=1016,16E18S,LGVI1,8.000000000000000
snotel,"594",1978-10-01,2100-01-01,47.460000000000001,-115.709999999999994,"5140",Snow Water Equivalent,ID,Shoshone,Little North Fork South Fork Coeur d'Alene River-South Fork Coeur d'Alene River,Lookout,http://www.wcc.nrcs.usda.gov/nwcc/site?sitenum=594,15B02S,LKTI1,8.000000000000000
snotel,"600",1979-10-01,2100-01-01,47.070000000000000,-115.959999999999994,"6110",Snow Water Equivalent,ID,Shoshone,Lost Lake-Little North Fork Clearwater River,Lost Lake,http://www.wcc.nrcs.usda.gov/nwcc/site?sitenum=600,15B14S,LSLI1,8.000000000000000
snotel,"601",1979-10-01,2100-01-01,43.820000000000000,-114.260000000000005,"7900",Snow Water Equivalent,ID,Blaine,Trail Creek,Lost-Wood Divide,http://www.wcc.nrcs.usda.gov/nwcc/site?sitenum=601,14F03S,LWDI1,8.000000000000000
snotel,"610",1979-10-01,2100-01-01,42.180000000000000,-114.290000000000006,"6880",Snow Water Equivalent,ID,Twin Falls,Headwaters Rock Creek,Magic Mountain,http://www.wcc.nrcs.usda.gov/nwcc/site?sitenum=610,14G02S,MGMI1,8.000000000000000
snotel,"620",1979-10-01,2100-01-01,44.439999999999998,-113.319999999999993,"9150",Snow Water Equivalent,ID,Lemhi,Upper Texas Creek,Meadow Lake,http://www.wcc.nrcs.usda.gov/nwcc/site?sitenum=620,13E18S,MDLI1,8.000000000000000
snotel,"623",1989-10-01,2100-01-01,47.149999999999999,-116.269999999999996,"4510",Snow Water Equivalent,ID,Shoshone,Mica Creek,Mica Creek,http://www.wcc.nrcs.usda.gov/nwcc/site?sitenum=623,16B14S,MCKI1,8.000000000000000
snotel,"627",1978-10-01,2100-01-01,44.469999999999999,-114.489999999999995,"8800",Snow Water Equivalent,ID,Custer,Upper Yankee Fork,Mill Creek Summit,http://www.wcc.nrcs.usda.gov/nwcc/site?sitenum=627,14E01S,MLKI1,8.000000000000000
snotel,"636",1979-10-01,2100-01-01,44.409999999999997,-113.400000000000006,"7440",Snow Water Equivalent,ID,Lemhi,Upper Sawmill Creek,Moonshine,http://www.wcc.nrcs.usda.gov/nwcc/site?sitenum=636,13E06S,MNSI1,8.000000000000000
snotel,"638",1979-10-01,2100-01-01,45.670000000000002,-113.950000000000003,"6200",Snow Water Equivalent,ID,Lemhi,Upper North Fork Salmon River,Moose Creek,http://www.wcc.nrcs.usda.gov/nwcc/site?sitenum=638,13D16S,MOKI1,8.000000000000000
snotel,"637",1978-10-01,2100-01-01,43.930000000000000,-115.670000000000002,"6100",Snow Water Equivalent,ID,Boise,Middle Crooked River,Mores Creek Summit,http://www.wcc.nrcs.usda.gov/nwcc/site?sitenum=637,15F01S,MRKI1,8.000000000000000
snotel,"639",1979-10-01,2100-01-01,44.840000000000003,-114.269999999999996,"7600",Snow Water Equivalent,ID,Lemhi,Headwaters Panther Creek,Morgan Creek,http://www.wcc.nrcs.usda.gov/nwcc/site?sitenum=639,14E04S,MRGI1,8.000000000000000
snotel,"989",2000-10-01,2100-01-01,46.810000000000002,-116.849999999999994,"4700",Snow Water Equivalent,ID,Latah,Little Bear Creek,Moscow Mountain,http://www.wcc.nrcs.usda.gov/nwcc/site?sitenum=989,16C02S,MSCI1,8.000000000000000
snotel,"645",1978-10-01,2100-01-01,48.060000000000002,-116.230000000000004,"5200",Snow Water Equivalent,ID,Shoshone,Upper North Fork Coeur d'Alene River,Mosquito Ridge,http://www.wcc.nrcs.usda.gov/nwcc/site?sitenum=645,16A04S,MOQI1,8.000000000000000
snotel,"650",1979-10-01,2100-01-01,45.700000000000003,-115.230000000000004,"6360",Snow Water Equivalent,ID,Idaho,Headwaters Meadow Creek,Mountain Meadows,http://www.wcc.nrcs.usda.gov/nwcc/site?sitenum=650,15D06S,MTMI1,8.000000000000000
snotel,"654",1979-10-01,2100-01-01,42.600000000000001,-116.560000000000002,"5730",Snow Water Equivalent,ID,Owyhee,Upper Pole Creek,Mud Flat,http://www.wcc.nrcs.usda.gov/nwcc/site?sitenum=654,16G07S,MDFI1,8.000000000000000
snotel,"1053",2003-10-01,2100-01-01,48.719999999999999,-116.459999999999994,"3520",Snow Water Equivalent,ID,Boundary,Myrtle Creek,Myrtle Creek,http://www.wcc.nrcs.usda.gov/nwcc/site?sitenum=1053,16A14S,MYRI1,8.000000000000000
snotel,"677",1979-10-01,2100-01-01,42.259999999999998,-112.129999999999995,"6740",Snow Water Equivalent,ID,Oneida,Lower Deep Creek,Oxford Spring,http://www.wcc.nrcs.usda.gov/nwcc/site?sitenum=677,12G18S,OXSI1,8.000000000000000
snotel,"1142",2009-09-29,2100-01-01,46.490000000000002,-115.799999999999997,"3080",Snow Water Equivalent,ID,Clearwater,Upper Orofino Creek,Pierce R.S.,http://www.wcc.nrcs.usda.gov/nwcc/site?sitenum=1142,15C05S,PRNI1,8.000000000000000
snotel,"695",1988-10-01,2100-01-01,43.570000000000000,-111.209999999999994,"6720",Snow Water Equivalent,ID,Teton,Warm Creek,Pine Creek Pass,http://www.wcc.nrcs.usda.gov/nwcc/site?sitenum=695,11F02S,PCPI1,8.000000000000000
snotel,"704",1979-10-01,2100-01-01,43.509999999999998,-115.569999999999993,"4800",Snow Water Equivalent,ID,Elmore,Lower Smith Creek,Prairie,http://www.wcc.nrcs.usda.gov/nwcc/site?sitenum=704,15F06S,PRAI1,8.000000000000000
snotel,"1081",2006-08-22,2100-01-01,47.859999999999999,-117.040000000000006,"4210",Snow Water Equivalent,ID,Kootenai,Rathdrum Creek,Ragged Mountain,http://www.wcc.nrcs.usda.gov/nwcc/site?sitenum=1081,17B06S,RAGI1,8.000000000000000
snotel,"2029",1999-08-31,2100-01-01,43.289999999999999,-116.849999999999994,"5600",Snow Water Equivalent,ID,Owyhee,Upper Reynolds Creek,Reynolds Creek,http://www.wcc.nrcs.usda.gov/nwcc/site?sitenum=2029,16F08S,RYCI1,7.000000000000000
snotel,"735",1982-10-01,2100-01-01,46.469999999999999,-114.629999999999995,"6170",Snow Water Equivalent,ID,Idaho,Lower Colt Killed Creek,Savage Pass,http://www.wcc.nrcs.usda.gov/nwcc/site?sitenum=735,14C04S,SVPI1,8.000000000000000
snotel,"915",1995-09-26,2100-01-01,44.850000000000001,-113.840000000000003,"8540",Snow Water Equivalent,ID,Lemhi,Basin Creek,Schwartz Lake,http://www.wcc.nrcs.usda.gov/nwcc/site?sitenum=915,13E16S,SCHI1,8.000000000000000
snotel,"738",1979-10-01,2100-01-01,48.369999999999997,-116.640000000000001,"6090",Snow Water Equivalent,ID,Bonner,Middle Fork East River-East River,Schweitzer Basin,http://www.wcc.nrcs.usda.gov/nwcc/site?sitenum=738,16A10S,STZI1,8.000000000000000
snotel,"1038",2002-09-16,2008-07-15,48.369999999999997,-116.640000000000001,"6110",Snow Water Equivalent,ID,Bonner,Middle Fork East River-East River,Schweitzer Saddle,http://www.wcc.nrcs.usda.gov/nwcc/site?sitenum=1038,16A13S,SCWI1,8.000000000000000
snotel,"740",1979-10-01,2100-01-01,45.189999999999998,-115.969999999999999,"6520",Snow Water Equivalent,ID,Valley,Headwaters North Fork Payette River,Secesh Summit,http://www.wcc.nrcs.usda.gov/nwcc/site?sitenum=740,15D01S,SCSI1,8.000000000000000
snotel,"741",1988-10-01,2100-01-01,42.520000000000003,-111.959999999999994,"7850",Snow Water Equivalent,ID,Bannock,Dempsey Creek,Sedgwick Peak,http://www.wcc.nrcs.usda.gov/nwcc/site?sitenum=741,11G30S,SEPI1,8.000000000000000
snotel,"747",1982-10-01,2100-01-01,46.570000000000000,-115.739999999999995,"4570",Snow Water Equivalent,ID,Clearwater,Upper Orogrande Creek,Shanghi Summit,http://www.wcc.nrcs.usda.gov/nwcc/site?sitenum=747,15C04S,SHAI1,8.000000000000000
snotel,"749",1978-10-01,2100-01-01,43.210000000000001,-111.689999999999998,"6570",Snow Water Equivalent,ID,Bingham,Horse Creek-Willow Creek,Sheep Mtn.,http://www.wcc.nrcs.usda.gov/nwcc/site?sitenum=749,11F11S,SPMI1,8.000000000000000
snotel,"752",1979-10-01,2100-01-01,46.950000000000003,-116.340000000000003,"3200",Snow Water Equivalent,ID,Latah,West Fork St Maries River,Sherwin,http://www.wcc.nrcs.usda.gov/nwcc/site?sitenum=752,16C01S,SHWI1,8.000000000000000
snotel,"761",1978-10-01,2100-01-01,42.560000000000002,-111.299999999999997,"7225",Snow Water Equivalent,ID,Caribou,Headwaters Slug Creek,Slug Creek Divide,http://www.wcc.nrcs.usda.gov/nwcc/site?sitenum=761,11G05S,SLGI1,8.000000000000000
snotel,"926",2001-09-19,2100-01-01,43.729999999999997,-113.829999999999998,"9520",Snow Water Equivalent,ID,Custer,Lower Star Hope Creek,Smiley Mountain,http://www.wcc.nrcs.usda.gov/nwcc/site?sitenum=926,13F13S,SMMI1,8.000000000000000
snotel,"769",1986-10-01,2100-01-01,43.479999999999997,-114.829999999999998,"5740",Snow Water Equivalent,ID,Camas,Upper Soldier Creek,Soldier R.S.,http://www.wcc.nrcs.usda.gov/nwcc/site?sitenum=769,14F11S,SRSI1,8.000000000000000
snotel,"770",1978-10-01,2100-01-01,42.950000000000003,-111.359999999999999,"6800",Snow Water Equivalent,ID,Caribou,Upper Lanes Creek,Somsen Ranch,http://www.wcc.nrcs.usda.gov/nwcc/site?sitenum=770,11G01S,SORI1,8.000000000000000
snotel,"774",1978-10-01,2100-01-01,42.759999999999998,-116.900000000000006,"6500",Snow Water Equivalent,ID,Owyhee,Deer Creek-Big Boulder Creek,South Mtn.,http://www.wcc.nrcs.usda.gov/nwcc/site?sitenum=774,16G01S,SMTI1,8.000000000000000
snotel,"782",1979-10-01,2100-01-01,44.770000000000003,-116.250000000000000,"6240",Snow Water Equivalent,ID,Adams,Granite Creek-Middle Fork Weiser River,Squaw Flat,http://www.wcc.nrcs.usda.gov/nwcc/site?sitenum=782,16E05S,SQFI1,8.000000000000000
snotel,"792",1979-10-01,2100-01-01,43.859999999999999,-114.209999999999994,"7430",Snow Water Equivalent,ID,Custer,Summit Creek,Stickney Mill,http://www.wcc.nrcs.usda.gov/nwcc/site?sitenum=792,14F02S,STMI1,8.000000000000000
snotel,"803",1978-10-01,2100-01-01,47.560000000000002,-115.819999999999993,"5540",Snow Water Equivalent,ID,Shoshone,Canyon Creek-Upper South Fork Coeur d'Alene River,Sunset,http://www.wcc.nrcs.usda.gov/nwcc/site?sitenum=803,15B09S,SNSI1,8.000000000000000
snotel,"805",1978-10-01,2100-01-01,43.630000000000003,-113.969999999999999,"7640",Snow Water Equivalent,ID,Blaine,Upper Muldoon Creek,Swede Peak,http://www.wcc.nrcs.usda.gov/nwcc/site?sitenum=805,13F09S,SWPI1,8.000000000000000
snotel,"830",1978-10-01,2100-01-01,43.630000000000003,-115.439999999999998,"7770",Snow Water Equivalent,ID,Elmore,Roaring River,Trinity Mtn.,http://www.wcc.nrcs.usda.gov/nwcc/site?sitenum=830,15F05S,TRMI1,8.000000000000000
snotel,"979",2000-10-01,2100-01-01,44.380000000000003,-116.340000000000003,"4920",Snow Water Equivalent,ID,Washington,Lower North Crane Creek,Van Wyck,http://www.wcc.nrcs.usda.gov/nwcc/site?sitenum=979,16E14S,VWGI1,8.000000000000000
snotel,"845",1978-10-01,2100-01-01,43.799999999999997,-114.849999999999994,"8960",Snow Water Equivalent,ID,Camas,Smiley Creek,Vienna Mine,http://www.wcc.nrcs.usda.gov/nwcc/site?sitenum=845,14F04S,VNNI1,8.000000000000000
snotel,"855",1979-10-01,2100-01-01,45.070000000000000,-116.450000000000003,"5560",Snow Water Equivalent,ID,Adams,Upper Weiser River,West Branch,http://www.wcc.nrcs.usda.gov/nwcc/site?sitenum=855,16D08S,WBRI1,8.000000000000000
snotel,"860",1979-10-01,2100-01-01,44.530000000000001,-111.409999999999997,"7710",Snow Water Equivalent,ID,Fremont,Coffee Pot-Henrys Fork,White Elephant,http://www.wcc.nrcs.usda.gov/nwcc/site?sitenum=860,11E36S,WHEI1,8.000000000000000
snotel,"867",1979-10-01,2100-01-01,42.759999999999998,-112.480000000000004,"6490",Snow Water Equivalent,ID,Bannock,Mink Creek,Wildhorse Divide,http://www.wcc.nrcs.usda.gov/nwcc/site?sitenum=867,12G17S,WHDI1,8.000000000000000
snotel,"871",1989-10-01,2100-01-01,42.009999999999998,-115.000000000000000,"7120",Snow Water Equivalent,ID,Twin Falls,Upper Wilson Creek,Wilson Creek,http://www.wcc.nrcs.usda.gov/nwcc/site?sitenum=871,15G02S,WLCI1,8.000000000000000
snotel,"916",1996-09-11,2100-01-01,45.600000000000001,-111.959999999999994,"8300",Snow Water Equivalent,MT,Madison,South Willow Creek,Albro Lake,http://www.wcc.nrcs.usda.gov/nwcc/site?sitenum=916,11D28S,ABRM8,8.000000000000000
snotel,"307",1978-10-01,2100-01-01,48.130000000000003,-113.019999999999996,"6900",Snow Water Equivalent,MT,Flathead,North Badger Creek,Badger Pass,http://www.wcc.nrcs.usda.gov/nwcc/site?sitenum=307,13A15S,BADM8,8.000000000000000
snotel,"311",1968-10-01,2100-01-01,48.570000000000000,-115.450000000000003,"5600",Snow Water Equivalent,MT,Lincoln,Upper Fortine Creek,Banfield Mountain,http://www.wcc.nrcs.usda.gov/nwcc/site?sitenum=311,15A08S,BANM8,8.000000000000000
snotel,"313",1979-10-01,2100-01-01,46.100000000000001,-113.129999999999995,"8250",Snow Water Equivalent,MT,Deer Lodge,Warm Springs Creek-West Valley,Barker Lakes,http://www.wcc.nrcs.usda.gov/nwcc/site?sitenum=313,13C44S,BRLM8,8.000000000000000
snotel,"315",1979-10-01,2100-01-01,45.799999999999997,-112.519999999999996,"7180",Snow Water Equivalent,MT,Silver Bow,Basin Creek,Basin Creek,http://www.wcc.nrcs.usda.gov/nwcc/site?sitenum=315,12D09S,BSCM8,8.000000000000000
snotel,"318",1978-10-01,2100-01-01,44.469999999999999,-112.980000000000004,"8850",Snow Water Equivalent,MT,Beaverhead,Upper Nicholia Creek,Beagle Springs,http://www.wcc.nrcs.usda.gov/nwcc/site?sitenum=318,12E08S,BEAM8,8.000000000000000
snotel,"328",1966-10-01,2100-01-01,44.950000000000003,-111.359999999999999,"7850",Snow Water Equivalent,MT,Gallatin,Upper Beaver Creek,Beaver Creek,http://www.wcc.nrcs.usda.gov/nwcc/site?sitenum=328,11E38S,BEVM8,8.000000000000000
snotel,"346",1989-10-01,2100-01-01,47.680000000000000,-114.000000000000000,"4920",Snow Water Equivalent,MT,Lake,Mud Creek,Bisson Creek,http://www.wcc.nrcs.usda.gov/nwcc/site?sitenum=346,13B25S,BISM8,8.000000000000000
snotel,"347",1971-10-01,2100-01-01,44.509999999999998,-111.129999999999995,"8170",Snow Water Equivalent,MT,Gallatin,Upper South Fork Madison River,Black Bear,http://www.wcc.nrcs.usda.gov/nwcc/site?sitenum=347,11E35S,BLBM8,8.000000000000000
snotel,"349",1965-10-01,2100-01-01,46.409999999999997,-113.430000000000007,"7210",Snow Water Equivalent,MT,Granite,Marshall Creek,Black Pine,http://www.wcc.nrcs.usda.gov/nwcc/site?sitenum=349,13C13S,BLKM8,8.000000000000000
snotel,"1144",2010-08-25,2100-01-01,47.979999999999997,-114.349999999999994,"5650",Snow Water Equivalent,MT,Flathead,Ronan Creek,Blacktail Mtn,http://www.wcc.nrcs.usda.gov/nwcc/site?sitenum=1144,14B04S,BLTM8,8.000000000000000
snotel,"355",1976-10-01,2100-01-01,45.170000000000002,-113.500000000000000,"7600",Snow Water Equivalent,MT,Beaverhead,Upper Bloody Dick Creek,Bloody Dick,http://www.wcc.nrcs.usda.gov/nwcc/site?sitenum=355,13D10S,BLOM8,8.000000000000000
snotel,"360",1978-10-01,2100-01-01,46.560000000000002,-111.290000000000006,"7950",Snow Water Equivalent,MT,Meagher,Upper Camas Creek,Boulder Mountain,http://www.wcc.nrcs.usda.gov/nwcc/site?sitenum=360,11C01S,BOMM8,8.000000000000000
snotel,"363",1978-10-01,2100-01-01,45.270000000000003,-110.250000000000000,"6670",Snow Water Equivalent,MT,Park,East Fork Boulder River,Box Canyon,http://www.wcc.nrcs.usda.gov/nwcc/site?sitenum=363,10D31S,BOXM8,8.000000000000000
snotel,"365",1994-09-30,2100-01-01,45.890000000000001,-110.939999999999998,"7320",Snow Water Equivalent,MT,Gallatin,Upper Brackett Creek,Brackett Creek,http://www.wcc.nrcs.usda.gov/nwcc/site?sitenum=365,10D35S,BRCM8,8.000000000000000
snotel,"981",2000-10-01,2100-01-01,45.240000000000002,-109.459999999999994,"5880",Snow Water Equivalent,MT,Carbon,West Red Lodge Creek,Burnt Mtn,http://www.wcc.nrcs.usda.gov/nwcc/site?sitenum=981,09D21S,BMTM8,8.000000000000000
snotel,"381",1975-10-01,2100-01-01,45.880000000000003,-113.329999999999998,"6430",Snow Water Equivalent,MT,Deer Lodge,Fishtrap Creek,Calvert Creek,http://www.wcc.nrcs.usda.gov/nwcc/site?sitenum=381,13D26S,CLVM8,8.000000000000000
snotel,"385",1966-10-01,2100-01-01,44.960000000000001,-111.290000000000006,"9000",Snow Water Equivalent,MT,Gallatin,Sage Creek,Carrot Basin,http://www.wcc.nrcs.usda.gov/nwcc/site?sitenum=385,11E29S,CRRM8,8.000000000000000
snotel,"403",1978-10-01,2100-01-01,45.020000000000003,-111.849999999999994,"8600",Snow Water Equivalent,MT,Madison,Ruby Creek,Clover Meadow,http://www.wcc.nrcs.usda.gov/nwcc/site?sitenum=403,11D08S,CMDM8,8.000000000000000
snotel,"407",1971-01-01,2100-01-01,45.189999999999998,-109.349999999999994,"7850",Snow Water Equivalent,MT,Carbon,East Red Lodge Creek,Cole Creek,http://www.wcc.nrcs.usda.gov/nwcc/site?sitenum=407,09D16S,CLCM8,8.000000000000000
snotel,"410",1972-10-01,2100-01-01,46.469999999999999,-113.390000000000001,"5600",Snow Water Equivalent,MT,Granite,Upper South Fork Lower Middle Creek,Combination,http://www.wcc.nrcs.usda.gov/nwcc/site?sitenum=410,13C33S,CMBM8,8.000000000000000
snotel,"413",1975-10-01,2100-01-01,47.060000000000002,-112.599999999999994,"5200",Snow Water Equivalent,MT,Lewis And Clark,Copper Creek,Copper Bottom,http://www.wcc.nrcs.usda.gov/nwcc/site?sitenum=413,12B16S,COPM8,8.000000000000000
snotel,"414",1971-10-01,2100-01-01,47.079999999999998,-112.730000000000004,"6950",Snow Water Equivalent,MT,Lewis And Clark,Copper Creek,Copper Camp,http://www.wcc.nrcs.usda.gov/nwcc/site?sitenum=414,12B14S,CPCM8,8.000000000000000
snotel,"427",1978-10-01,2100-01-01,46.789999999999999,-109.510000000000005,"6050",Snow Water Equivalent,MT,Fergus,Big Rock Creek,Crystal Lake,http://www.wcc.nrcs.usda.gov/nwcc/site?sitenum=427,09C01S,CRYM8,8.000000000000000
snotel,"919",1990-10-01,2100-01-01,46.670000000000002,-110.329999999999998,"7600",Snow Water Equivalent,MT,Meagher,Mud Creek,Daisy Peak,http://www.wcc.nrcs.usda.gov/nwcc/site?sitenum=919,10C15S,DAZM8,8.000000000000000
snotel,"433",1979-10-01,2100-01-01,46.180000000000000,-113.849999999999994,"5780",Snow Water Equivalent,MT,Ravalli,Daly Creek,Daly Creek,http://www.wcc.nrcs.usda.gov/nwcc/site?sitenum=433,13C39S,DALM8,8.000000000000000
snotel,"436",1979-10-01,2100-01-01,45.170000000000002,-113.579999999999998,"8600",Snow Water Equivalent,MT,Beaverhead,Headwaters Big Hole River,Darkhorse Lake,http://www.wcc.nrcs.usda.gov/nwcc/site?sitenum=436,13D19S,DHLM8,8.000000000000000
snotel,"437",1967-10-01,2100-01-01,46.789999999999999,-110.680000000000007,"6450",Snow Water Equivalent,MT,Meagher,Headwaters Sheep Creek,Deadman Creek,http://www.wcc.nrcs.usda.gov/nwcc/site?sitenum=437,10C09S,DDMM8,8.000000000000000
snotel,"448",1971-01-01,2100-01-01,44.789999999999999,-112.060000000000002,"7800",Snow Water Equivalent,MT,Madison,Headwaters Ruby River,Divide,http://www.wcc.nrcs.usda.gov/nwcc/site?sitenum=448,12E07S,DIVM8,8.000000000000000
snotel,"458",1982-10-01,2100-01-01,48.060000000000002,-112.760000000000005,"5750",Snow Water Equivalent,MT,Teton,Upper Dupuyer Creek,Dupuyer Creek,http://www.wcc.nrcs.usda.gov/nwcc/site?sitenum=458,12A02S,DPYM8,8.000000000000000
snotel,"1105",2008-06-19,2100-01-01,45.500000000000000,-110.079999999999998,"6335",Snow Water Equivalent,MT,Sweet Grass,Upper East Boulder River,East Boulder Mine,http://www.wcc.nrcs.usda.gov/nwcc/site?sitenum=1105,10D39S,EBMM8,8.000000000000000
snotel,"1106",2008-07-09,2100-01-01,46.479999999999997,-110.709999999999994,"7600",Snow Water Equivalent,MT,Meagher,Alabaugh Creek,Elk Peak,http://www.wcc.nrcs.usda.gov/nwcc/site?sitenum=1106,10C27S,WHSM8,8.000000000000000
snotel,"469",1976-10-01,2100-01-01,48.430000000000000,-113.939999999999998,"4350",Snow Water Equivalent,MT,Flathead,Hungry Horse Creek,Emery Creek,http://www.wcc.nrcs.usda.gov/nwcc/site?sitenum=469,13A24S,EMCM8,8.000000000000000
snotel,"480",1966-10-01,2100-01-01,45.060000000000002,-109.939999999999998,"9100",Snow Water Equivalent,MT,Park,Broadwater Creek-Clarks Fork Yellowstone River,Fisher Creek,http://www.wcc.nrcs.usda.gov/nwcc/site?sitenum=480,09D06S,FSHM8,8.000000000000000
snotel,"482",1969-10-01,2100-01-01,48.799999999999997,-113.859999999999999,"6300",Snow Water Equivalent,MT,Flathead,McDonald Creek Headwaters,Flattop Mtn.,http://www.wcc.nrcs.usda.gov/nwcc/site?sitenum=482,13A19S,FTMM8,8.000000000000000
snotel,"487",1972-10-01,2100-01-01,46.439999999999998,-112.189999999999998,"6480",Snow Water Equivalent,MT,Jefferson,Lump Gulch,Frohner Meadow,http://www.wcc.nrcs.usda.gov/nwcc/site?sitenum=487,12C13S,FRHM8,8.000000000000000
snotel,"918",1968-10-01,2100-01-01,48.979999999999997,-115.819999999999993,"4250",Snow Water Equivalent,MT,Lincoln,Upper West Fork Yaak River,Garver Creek,http://www.wcc.nrcs.usda.gov/nwcc/site?sitenum=918,15A05S,GVRM8,8.000000000000000
snotel,"500",1971-01-01,2100-01-01,48.909999999999997,-114.769999999999996,"4300",Snow Water Equivalent,MT,Flathead,Canada,Grave Creek,http://www.wcc.nrcs.usda.gov/nwcc/site?sitenum=500,14A11S,GRCM8,8.000000000000000
snotel,"510",1976-10-01,2100-01-01,48.310000000000002,-114.840000000000003,"5035",Snow Water Equivalent,MT,Flathead,Squaw Meadows Creek,Hand Creek,http://www.wcc.nrcs.usda.gov/nwcc/site?sitenum=510,14A14S,HANM8,8.000000000000000
snotel,"516",1968-10-01,2100-01-01,48.969999999999999,-115.950000000000003,"6450",Snow Water Equivalent,MT,Lincoln,Canada,Hawkins Lake,http://www.wcc.nrcs.usda.gov/nwcc/site?sitenum=516,15A03S,HAWM8,8.000000000000000
snotel,"530",1966-10-01,2100-01-01,46.979999999999997,-115.030000000000001,"6050",Snow Water Equivalent,MT,Mineral,Upper Trout Creek,Hoodoo Basin,http://www.wcc.nrcs.usda.gov/nwcc/site?sitenum=530,15C10S,HOOM8,8.000000000000000
snotel,"562",1979-10-01,2100-01-01,47.430000000000000,-113.780000000000001,"4750",Snow Water Equivalent,MT,Missoula,Kraft Creek,Kraft Creek,http://www.wcc.nrcs.usda.gov/nwcc/site?sitenum=562,13B22S,KRCM8,8.000000000000000
snotel,"568",1978-10-01,2100-01-01,44.590000000000003,-111.819999999999993,"7400",Snow Water Equivalent,MT,Beaverhead,Odell Creek,Lakeview Ridge,http://www.wcc.nrcs.usda.gov/nwcc/site?sitenum=568,11E03S,LVRM8,8.000000000000000
snotel,"576",1971-01-01,2100-01-01,44.990000000000002,-113.439999999999998,"8100",Snow Water Equivalent,MT,Beaverhead,Trail Creek,Lemhi Ridge,http://www.wcc.nrcs.usda.gov/nwcc/site?sitenum=576,13E23S,LMHM8,8.000000000000000
snotel,"578",1963-10-01,2100-01-01,45.500000000000000,-110.969999999999999,"6860",Snow Water Equivalent,MT,Gallatin,Upper Hyalite Creek,Lick Creek,http://www.wcc.nrcs.usda.gov/nwcc/site?sitenum=578,10D13S,LCKM8,8.000000000000000
snotel,"590",1988-10-01,2100-01-01,45.270000000000003,-111.430000000000007,"8880",Snow Water Equivalent,MT,Madison,South Fork West Fork Gallatin River,Lone Mountain,http://www.wcc.nrcs.usda.gov/nwcc/site?sitenum=590,11D19S,BSKM8,8.000000000000000
snotel,"603",1979-10-01,2100-01-01,45.509999999999998,-111.920000000000002,"7900",Snow Water Equivalent,MT,Madison,Upper North Meadow Creek,Lower Twin,http://www.wcc.nrcs.usda.gov/nwcc/site?sitenum=603,11D11S,LWTM8,8.000000000000000
snotel,"604",1970-10-01,2100-01-01,46.880000000000003,-113.319999999999993,"4680",Snow Water Equivalent,MT,Missoula,Upper Elk Creek,Lubrecht Flume,http://www.wcc.nrcs.usda.gov/nwcc/site?sitenum=604,13C38S,LUBM8,8.000000000000000
snotel,"609",1967-10-01,2100-01-01,44.590000000000003,-111.120000000000005,"7750",Snow Water Equivalent,MT,Gallatin,Lower South Fork Madison River,Madison Plateau,http://www.wcc.nrcs.usda.gov/nwcc/site?sitenum=609,11E31S,MPLM8,8.000000000000000
snotel,"613",1976-10-01,2100-01-01,48.799999999999997,-113.670000000000002,"4900",Snow Water Equivalent,MT,Glacier,Swiftcurrent Lake,Many Glacier,http://www.wcc.nrcs.usda.gov/nwcc/site?sitenum=613,13A27S,MANM8,8.000000000000000
snotel,"635",1979-10-01,2100-01-01,45.219999999999999,-110.239999999999995,"8850",Snow Water Equivalent,MT,Park,East Fork Boulder River,Monument Peak,http://www.wcc.nrcs.usda.gov/nwcc/site?sitenum=635,10D12S,MNPM8,8.000000000000000
snotel,"646",1984-10-01,2100-01-01,47.680000000000000,-113.959999999999994,"6780",Snow Water Equivalent,MT,Lake,Polson,Moss Peak,http://www.wcc.nrcs.usda.gov/nwcc/site?sitenum=646,13B24S,MSPM8,8.000000000000000
snotel,"649",1968-10-01,2100-01-01,47.920000000000002,-112.819999999999993,"6400",Snow Water Equivalent,MT,Teton,Middle North Fork Teton River,Mount Lockhart,http://www.wcc.nrcs.usda.gov/nwcc/site?sitenum=649,12B12S,MTKM8,8.000000000000000
snotel,"656",1979-10-01,2100-01-01,45.409999999999997,-112.959999999999994,"8300",Snow Water Equivalent,MT,Beaverhead,Birch Creek,Mule Creek,http://www.wcc.nrcs.usda.gov/nwcc/site?sitenum=656,12D11S,MULM8,8.000000000000000
snotel,"657",1967-10-01,2100-01-01,46.869999999999997,-113.280000000000001,"6250",Snow Water Equivalent,MT,Powell,Upper Elk Creek,N Fk Elk Creek,http://www.wcc.nrcs.usda.gov/nwcc/site?sitenum=657,13C31S,NFEM8,8.000000000000000
snotel,"659",1979-10-01,1999-10-12,46.829999999999998,-112.519999999999996,"6480",Snow Water Equivalent,MT,Lewis And Clark,Nevada Creek Headwaters,Nevada Creek,http://www.wcc.nrcs.usda.gov/nwcc/site?sitenum=659,12C21S,NEVM8,8.000000000000000
snotel,"903",1993-10-01,2100-01-01,46.840000000000003,-112.510000000000005,"7020",Snow Water Equivalent,MT,Lewis And Clark,Poorman Creek,Nevada Ridge,http://www.wcc.nrcs.usda.gov/nwcc/site?sitenum=903,12C22S,NVRM8,8.000000000000000
snotel,"662",1976-10-01,2100-01-01,45.729999999999997,-114.480000000000004,"5650",Snow Water Equivalent,MT,Ravalli,Nez Pierce Fork-Nelson Lake,Nez Perce Camp,http://www.wcc.nrcs.usda.gov/nwcc/site?sitenum=662,14D02S,NZCM8,8.000000000000000
snotel,"664",1971-01-01,2100-01-01,48.159999999999997,-113.950000000000003,"6040",Snow Water Equivalent,MT,Flathead,Flathead River-Rose Creek,Noisy Basin,http://www.wcc.nrcs.usda.gov/nwcc/site?sitenum=664,13A25S,NOIM8,8.000000000000000
snotel,"667",1988-10-01,2100-01-01,47.270000000000003,-113.760000000000005,"6330",Snow Water Equivalent,MT,Missoula,Middle Fork Jocko River,North Fork Jocko,http://www.wcc.nrcs.usda.gov/nwcc/site?sitenum=667,13B07S,NFJM8,8.000000000000000
snotel,"670",1966-10-01,2100-01-01,45.009999999999998,-110.010000000000005,"7350",Snow Water Equivalent,MT,Yellowstone National Park,Upper Soda Butte Creek,Northeast Entrance,http://www.wcc.nrcs.usda.gov/nwcc/site?sitenum=670,10D07S,NORM8,8.000000000000000
snotel,"1008",1993-10-01,2100-01-01,46.909999999999997,-110.849999999999994,"7410",Snow Water Equivalent,MT,Meagher,Upper Tenderfoot Creek,Onion Park,http://www.wcc.nrcs.usda.gov/nwcc/site?sitenum=1008,10C22S,ONPM8,8.000000000000000
snotel,"930",1970-10-01,2100-01-01,46.130000000000003,-113.310000000000002,"7200",Snow Water Equivalent,MT,Granite,Silver Lake,Peterson Meadows,http://www.wcc.nrcs.usda.gov/nwcc/site?sitenum=930,13C36S,PTNM8,8.000000000000000
snotel,"690",1978-10-01,2100-01-01,46.579999999999998,-111.269999999999996,"6650",Snow Water Equivalent,MT,Meagher,Upper Camas Creek,Pickfoot Creek,http://www.wcc.nrcs.usda.gov/nwcc/site?sitenum=690,11C02S,PCKM8,8.000000000000000
snotel,"693",1976-10-01,2100-01-01,48.299999999999997,-113.329999999999998,"5930",Snow Water Equivalent,MT,Pondera,Upper South Fork Two Medicine River,Pike Creek,http://www.wcc.nrcs.usda.gov/nwcc/site?sitenum=693,13A26S,PICM8,8.000000000000000
snotel,"696",1979-10-01,2100-01-01,45.420000000000002,-110.090000000000003,"8830",Snow Water Equivalent,MT,Sweet Grass,Upper East Boulder River,Placer Basin,http://www.wcc.nrcs.usda.gov/nwcc/site?sitenum=696,10D24S,PLCM8,8.000000000000000
snotel,"932",1968-10-01,2100-01-01,48.130000000000003,-115.620000000000005,"5100",Snow Water Equivalent,MT,Lincoln,Upper Grave Creek,Poorman Creek,http://www.wcc.nrcs.usda.gov/nwcc/site?sitenum=932,15A12S,PMNM8,8.000000000000000
snotel,"700",1976-10-01,2100-01-01,46.109999999999999,-110.469999999999999,"6500",Snow Water Equivalent,MT,Park,Porcupine Creek,Porcupine,http://www.wcc.nrcs.usda.gov/nwcc/site?sitenum=700,10C03S,PRPM8,8.000000000000000
snotel,"722",1967-10-01,2100-01-01,46.359999999999999,-112.260000000000005,"8000",Snow Water Equivalent,MT,Jefferson,Cataract Creek,Rocker Peak,http://www.wcc.nrcs.usda.gov/nwcc/site?sitenum=722,12C11S,RKPM8,8.000000000000000
snotel,"917",1967-10-01,2100-01-01,48.170000000000002,-109.650000000000006,"4700",Snow Water Equivalent,MT,Hill,Upper Beaver Creek,Rocky Boy,http://www.wcc.nrcs.usda.gov/nwcc/site?sitenum=917,09A01S,ROCM8,8.000000000000000
snotel,"725",1978-10-01,2100-01-01,46.090000000000003,-110.430000000000007,"8100",Snow Water Equivalent,MT,Park,Bennett Creek-Shields River,S Fork Shields,http://www.wcc.nrcs.usda.gov/nwcc/site?sitenum=725,10C08S,SFSM8,8.000000000000000
snotel,"929",1999-09-30,2100-01-01,45.869999999999997,-110.930000000000007,"6550",Snow Water Equivalent,MT,Gallatin,Upper Brackett Creek,Sacajawea,http://www.wcc.nrcs.usda.gov/nwcc/site?sitenum=929,10D10S,SAJM8,8.000000000000000
snotel,"727",1967-10-01,2100-01-01,45.689999999999998,-113.969999999999999,"7940",Snow Water Equivalent,MT,Beaverhead,Camp Creek,Saddle Mtn.,http://www.wcc.nrcs.usda.gov/nwcc/site?sitenum=727,13D22S,SDMM8,8.000000000000000
snotel,"753",1987-10-01,2100-01-01,44.979999999999997,-111.950000000000003,"7000",Snow Water Equivalent,MT,Madison,Lazyman Creek-Ruby River,Short Creek,http://www.wcc.nrcs.usda.gov/nwcc/site?sitenum=753,11E39S,SHCM8,8.000000000000000
snotel,"754",1965-10-01,2100-01-01,45.399999999999999,-110.959999999999994,"8100",Snow Water Equivalent,MT,Gallatin,Upper Hyalite Creek,Shower Falls,http://www.wcc.nrcs.usda.gov/nwcc/site?sitenum=754,10D16S,SHFM8,8.000000000000000
snotel,"758",1976-10-01,1998-10-08,45.149999999999999,-109.349999999999994,"6630",Snow Water Equivalent,MT,Carbon,Lower West Fork Rock Creek,Silver Run,http://www.wcc.nrcs.usda.gov/nwcc/site?sitenum=758,09D18S,SILM8,8.000000000000000
snotel,"760",1976-10-01,2100-01-01,46.240000000000002,-113.769999999999996,"7250",Snow Water Equivalent,MT,Granite,Middle West Fork Ross Creek,Skalkaho Summit,http://www.wcc.nrcs.usda.gov/nwcc/site?sitenum=760,13C03S,SKAM8,8.000000000000000
snotel,"783",1989-10-01,2100-01-01,47.180000000000000,-114.329999999999998,"6150",Snow Water Equivalent,MT,Sanders,East Fork Valley Creek,Sleeping Woman,http://www.wcc.nrcs.usda.gov/nwcc/site?sitenum=783,14B05S,SQPM8,8.000000000000000
snotel,"781",1966-10-01,2100-01-01,46.780000000000001,-110.620000000000005,"8100",Snow Water Equivalent,MT,Judith Basin,Cleveland Creek,Spur Park,http://www.wcc.nrcs.usda.gov/nwcc/site?sitenum=781,10C06S,SPRM8,8.000000000000000
snotel,"787",1971-01-01,2100-01-01,48.909999999999997,-114.859999999999999,"6030",Snow Water Equivalent,MT,Lincoln,Canada,Stahl Peak,http://www.wcc.nrcs.usda.gov/nwcc/site?sitenum=787,14A12S,STAM8,8.000000000000000
snotel,"1009",1995-10-01,2100-01-01,46.930000000000000,-110.900000000000006,"6550",Snow Water Equivalent,MT,Meagher,Upper Tenderfoot Creek,Stringer Creek,http://www.wcc.nrcs.usda.gov/nwcc/site?sitenum=1009,10C23S,STCM8,8.000000000000000
snotel,"901",1994-07-26,2100-01-01,47.000000000000000,-113.930000000000007,"7400",Snow Water Equivalent,MT,Missoula,Lower Rattlesnake Creek,Stuart Mountain,http://www.wcc.nrcs.usda.gov/nwcc/site?sitenum=901,13C01S,STTM8,8.000000000000000
snotel,"813",1971-10-01,2100-01-01,44.789999999999999,-111.709999999999994,"8000",Snow Water Equivalent,MT,Madison,Middle West Fork Madison River,Tepee Creek,http://www.wcc.nrcs.usda.gov/nwcc/site?sitenum=813,11E24S,TPEM8,8.000000000000000
snotel,"893",1987-10-01,2100-01-01,46.350000000000001,-111.849999999999994,"6880",Snow Water Equivalent,MT,Jefferson,Headwaters Crow Creek,Tizer Basin,http://www.wcc.nrcs.usda.gov/nwcc/site?sitenum=893,11C04S,TIBM8,8.000000000000000
snotel,"835",1967-10-01,2100-01-01,46.140000000000001,-114.450000000000003,"5600",Snow Water Equivalent,MT,Ravalli,Lost Horse Creek,Twelvemile Creek,http://www.wcc.nrcs.usda.gov/nwcc/site?sitenum=835,14C13S,TMCM8,8.000000000000000
snotel,"836",1967-10-01,2100-01-01,46.140000000000001,-114.510000000000005,"6400",Snow Water Equivalent,MT,Ravalli,Lost Horse Creek,Twin Lakes,http://www.wcc.nrcs.usda.gov/nwcc/site?sitenum=836,14C12S,TWLM8,8.000000000000000
snotel,"847",1968-10-01,2100-01-01,47.920000000000002,-112.790000000000006,"5600",Snow Water Equivalent,MT,Teton,Middle North Fork Teton River,Waldron,http://www.wcc.nrcs.usda.gov/nwcc/site?sitenum=847,12B13S,CHUM8,8.000000000000000
snotel,"850",1977-10-01,2100-01-01,46.270000000000003,-113.159999999999997,"7800",Snow Water Equivalent,MT,Granite,Headwaters Warm Springs Creek,Warm Springs,http://www.wcc.nrcs.usda.gov/nwcc/site?sitenum=850,13C43S,WRMM8,8.000000000000000
snotel,"924",1966-10-01,2100-01-01,44.659999999999997,-111.090000000000003,"6700",Snow Water Equivalent,MT,Yellowstone National Park,Madison Arm-Madison River,West Yellowstone,http://www.wcc.nrcs.usda.gov/nwcc/site?sitenum=924,11E07S,WYSM8,8.000000000000000
snotel,"858",1971-10-01,2100-01-01,44.609999999999999,-111.150000000000006,"6800",Snow Water Equivalent,MT,Gallatin,Middle South Fork Madison River,Whiskey Creek,http://www.wcc.nrcs.usda.gov/nwcc/site?sitenum=858,11E30S,WSKM8,8.000000000000000
snotel,"862",1973-10-01,2100-01-01,45.049999999999997,-109.909999999999997,"8700",Snow Water Equivalent,MT,Park,Broadwater Creek-Clarks Fork Yellowstone River,White Mill,http://www.wcc.nrcs.usda.gov/nwcc/site?sitenum=862,09D08S,WHTM8,8.000000000000000
snotel,"876",1978-10-01,2100-01-01,47.450000000000003,-112.810000000000002,"5960",Snow Water Equivalent,MT,Lewis And Clark,Wood Creek,Wood Creek,http://www.wcc.nrcs.usda.gov/nwcc/site?sitenum=876,12B17S,WODM8,8.000000000000000
snotel,"316",1978-10-01,2100-01-01,36.509999999999998,-106.319999999999993,"9300",Snow Water Equivalent,NM,Rio Arriba,Montoya Canyon-Canjilon Creek,Bateman,http://www.wcc.nrcs.usda.gov/nwcc/site?sitenum=316,06N04S,BAMN5,8.000000000000000
snotel,"394",1978-10-01,2100-01-01,36.960000000000001,-106.659999999999997,"8400",Snow Water Equivalent,NM,Rio Arriba,Rio Chamita,Chamita,http://www.wcc.nrcs.usda.gov/nwcc/site?sitenum=394,06N03S,CHAN5,8.000000000000000
snotel,"921",1996-10-01,2100-01-01,35.700000000000003,-105.810000000000002,"8210",Snow Water Equivalent,NM,Santa Fe,Headwaters Santa Fe River,Elk Cabin,http://www.wcc.nrcs.usda.gov/nwcc/site?sitenum=921,05P04S,ELCN5,8.000000000000000
snotel,"486",1978-10-01,2100-01-01,33.740000000000002,-108.950000000000003,"8000",Snow Water Equivalent,NM,Catron,Stone Creek-San Francisco River,Frisco Divide,http://www.wcc.nrcs.usda.gov/nwcc/site?sitenum=486,08S01S,FRDN5,8.000000000000000
snotel,"491",1979-10-01,2100-01-01,36.189999999999998,-105.560000000000002,"9800",Snow Water Equivalent,NM,Taos,Headwaters Rio Grande de Rancho,Gallegos Peak,http://www.wcc.nrcs.usda.gov/nwcc/site?sitenum=491,05N18S,GLGN5,8.000000000000000
snotel,"532",1978-10-01,2100-01-01,36.719999999999999,-106.260000000000005,"10000",Snow Water Equivalent,NM,Rio Arriba,Jarosa Creek-Rio Vallecitos,Hopewell,http://www.wcc.nrcs.usda.gov/nwcc/site?sitenum=532,06N14S,HPWN5,8.000000000000000
snotel,"595",1978-10-01,2100-01-01,33.359999999999999,-107.829999999999998,"8500",Snow Water Equivalent,NM,Sierra,Taylor Creek,Lookout Mountain,http://www.wcc.nrcs.usda.gov/nwcc/site?sitenum=595,07S04S,LKTN5,8.000000000000000
snotel,"1048",2003-09-25,2100-01-01,33.009999999999998,-107.870000000000005,"9240",Snow Water Equivalent,NM,Grant,Sheppard Canyon-Mimbres River,Mcknight Cabin,http://www.wcc.nrcs.usda.gov/nwcc/site?sitenum=1048,07S03S,MCKN5,8.000000000000000
snotel,"1138",2009-05-12,2100-01-01,36.180000000000000,-108.950000000000003,"9050",Snow Water Equivalent,NM,San Juan,Whiskey Creek (Local Drainage),Navajo Whiskey Ck,http://www.wcc.nrcs.usda.gov/nwcc/site?sitenum=1138,08N03S,WCTN5,8.000000000000000
snotel,"665",1978-10-01,2100-01-01,36.990000000000002,-105.260000000000005,"10600",Snow Water Equivalent,NM,Taos,Casias Creek-Costillo Creek,North Costilla,http://www.wcc.nrcs.usda.gov/nwcc/site?sitenum=665,05N16S,NCSN5,8.000000000000000
snotel,"1170",2010-08-09,2100-01-01,36.409999999999997,-105.329999999999998,"9350",Snow Water Equivalent,NM,Taos,Headwaters Rio Fernando del Taos,Palo,http://www.wcc.nrcs.usda.gov/nwcc/site?sitenum=1170,05N13S,TACN5,8.000000000000000
snotel,"678",1979-10-01,2001-10-25,35.829999999999998,-105.659999999999997,"8400",Snow Water Equivalent,NM,San Miguel,Panchuela Creek,Panchuela,http://www.wcc.nrcs.usda.gov/nwcc/site?sitenum=678,05P02S,PANN5,8.000000000000000
snotel,"708",1979-10-01,2100-01-01,35.920000000000002,-106.390000000000001,"9500",Snow Water Equivalent,NM,Los Alamos,Los Alamos Canyon,Quemazon,http://www.wcc.nrcs.usda.gov/nwcc/site?sitenum=708,06P01S,QMZN5,8.000000000000000
snotel,"715",1978-10-01,2100-01-01,36.700000000000003,-105.340000000000003,"9850",Snow Water Equivalent,NM,Colfax,Upper Red River,Red River Pass #2,http://www.wcc.nrcs.usda.gov/nwcc/site?sitenum=715,05N11S,RRPN5,8.000000000000000
snotel,"933",1998-08-10,2100-01-01,35.229999999999997,-108.269999999999996,"8460",Snow Water Equivalent,NM,Valencia,Sawyer Creek,Rice Park,http://www.wcc.nrcs.usda.gov/nwcc/site?sitenum=933,08P03S,RPRN5,8.000000000000000
snotel,"1254",2013-09-24,2100-01-01,36.070000000000000,-105.629999999999995,"10664",Snow Water Equivalent,NM,Taos,Outlet Rio Santa Barbara,Rio Santa Barbara,http://www.wcc.nrcs.usda.gov/nwcc/site?sitenum=1254,05N24S,,8.000000000000000
snotel,"1172",2011-07-14,2100-01-01,36.859999999999999,-106.230000000000004,"9100",Snow Water Equivalent,NM,Rio Arriba,Canada Tio Grande-Rio San Antonio,San Antonio Sink,http://www.wcc.nrcs.usda.gov/nwcc/site?sitenum=1172,06N15S,SSCN5,8.000000000000000
snotel,"922",1996-10-01,2100-01-01,35.770000000000003,-105.780000000000001,"11445",Snow Water Equivalent,NM,Santa Fe,Headwaters Santa Fe River,Santa Fe,http://www.wcc.nrcs.usda.gov/nwcc/site?sitenum=922,05P09S,SFSN5,8.000000000000000
snotel,"744",1979-10-01,2100-01-01,36.000000000000000,-106.829999999999998,"8600",Snow Water Equivalent,NM,Rio Arriba,Headwaters Rio de Las Vacas,Senorita Divide #2,http://www.wcc.nrcs.usda.gov/nwcc/site?sitenum=744,06P10S,SENN5,8.000000000000000
snotel,"1169",2010-08-09,2100-01-01,36.789999999999999,-105.239999999999995,"10100",Snow Water Equivalent,NM,Colfax,Comanche Creek,Shuree,http://www.wcc.nrcs.usda.gov/nwcc/site?sitenum=1169,05N23S,SHUN5,8.000000000000000
snotel,"1034",2002-10-01,2100-01-01,33.399999999999999,-105.790000000000006,"10280",Snow Water Equivalent,NM,Lincoln,Upper Rio Ruidoso,Sierra Blanca,http://www.wcc.nrcs.usda.gov/nwcc/site?sitenum=1034,05R01S,SIEN5,8.000000000000000
snotel,"755",1978-10-01,2100-01-01,32.920000000000002,-108.150000000000006,"8360",Snow Water Equivalent,NM,Grant,Lake Roberts-Sapillo Creek,Signal Peak,http://www.wcc.nrcs.usda.gov/nwcc/site?sitenum=755,08T01S,SGNN5,8.000000000000000
snotel,"757",1978-10-01,2100-01-01,33.369999999999997,-108.709999999999994,"9000",Snow Water Equivalent,NM,Catron,Mineral Creek,Silver Creek Divide,http://www.wcc.nrcs.usda.gov/nwcc/site?sitenum=757,08S08S,SCDN5,8.000000000000000
snotel,"1168",2010-08-09,2100-01-01,36.579999999999998,-105.459999999999994,"11057",Snow Water Equivalent,NM,Taos,Headwaters Arroyo Hondo,Taos Powderhorn,http://www.wcc.nrcs.usda.gov/nwcc/site?sitenum=1168,05N14S,TABN5,8.000000000000000
snotel,"934",1998-08-10,2100-01-01,36.469999999999999,-105.189999999999998,"10180",Snow Water Equivalent,NM,Colfax,Ute Creek-Cimarron River,Tolby,http://www.wcc.nrcs.usda.gov/nwcc/site?sitenum=934,05N19S,TOLN5,8.000000000000000
snotel,"1083",2006-09-14,2100-01-01,36.130000000000003,-105.530000000000001,"8600",Snow Water Equivalent,NM,Taos,Osha Canyon-Rio Pueblo,Tres Ritos,http://www.wcc.nrcs.usda.gov/nwcc/site?sitenum=1083,05N04S,TREN5,8.000000000000000
snotel,"1017",2001-10-01,2100-01-01,36.030000000000001,-106.810000000000002,"9306",Snow Water Equivalent,NM,Rio Arriba,Headwaters Rio de Las Vacas,Vacas Locas,http://www.wcc.nrcs.usda.gov/nwcc/site?sitenum=1017,06N16S,VACN5,8.000000000000000
snotel,"854",1988-10-01,2100-01-01,35.780000000000001,-105.540000000000006,"11120",Snow Water Equivalent,NM,San Miguel,Porvenir Canyon-Gallinas Creek,Wesner Springs,http://www.wcc.nrcs.usda.gov/nwcc/site?sitenum=854,05P08S,WSSN5,8.000000000000000
snotel,"321",1978-10-01,2100-01-01,41.829999999999998,-115.450000000000003,"8040",Snow Water Equivalent,NV,Elko,West Fork Pine Creek-Jarbidge River,Bear Creek,http://www.wcc.nrcs.usda.gov/nwcc/site?sitenum=321,15H01S,BERN2,8.000000000000000
snotel,"334",1979-10-01,2100-01-01,39.320000000000000,-114.620000000000005,"9100",Snow Water Equivalent,NV,White Pine,Berry Creek,Berry Creek,http://www.wcc.nrcs.usda.gov/nwcc/site?sitenum=334,14K02S,BRCN2,8.000000000000000
snotel,"336",1978-10-01,2100-01-01,41.759999999999998,-115.689999999999998,"6700",Snow Water Equivalent,NV,Elko,Martin Creek,Big Bend,http://www.wcc.nrcs.usda.gov/nwcc/site?sitenum=336,15H04S,BIGN2,8.000000000000000
snotel,"337",1979-10-01,2100-01-01,39.289999999999999,-117.109999999999999,"8695",Snow Water Equivalent,NV,Lander,Big Creek,Big Creek Sum,http://www.wcc.nrcs.usda.gov/nwcc/site?sitenum=337,17K04S,BCSN2,8.000000000000000
snotel,"340",1983-10-01,2100-01-01,39.460000000000001,-119.939999999999998,"8249",Snow Water Equivalent,NV,Washoe,Hunter Creek-Truckee River,Big Meadow,http://www.wcc.nrcs.usda.gov/nwcc/site?sitenum=340,19K08S,BMWN2,8.000000000000000
snotel,"1155",2011-07-26,2100-01-01,39.460000000000001,-114.650000000000006,"7500",Snow Water Equivalent,NV,White Pine,Timber Creek-Duck Creek,Bird Creek,http://www.wcc.nrcs.usda.gov/nwcc/site?sitenum=1155,14K01S,BIRN2,8.000000000000000
snotel,"1111",2008-06-02,2100-01-01,36.320000000000000,-115.700000000000003,"8979",Snow Water Equivalent,NV,Clark,Lee Canyon,Bristlecone Trail,http://www.wcc.nrcs.usda.gov/nwcc/site?sitenum=1111,15N09S,BRSN2,8.000000000000000
snotel,"373",1979-10-01,2100-01-01,41.750000000000000,-117.530000000000001,"6915",Snow Water Equivalent,NV,Humboldt,Cabin Creek-Martin Creek,Buckskin Lower,http://www.wcc.nrcs.usda.gov/nwcc/site?sitenum=373,17H02S,BKLN2,8.000000000000000
snotel,"1152",2011-07-27,2100-01-01,39.159999999999997,-114.609999999999999,"10583",Snow Water Equivalent,NV,White Pine,Bastian Creek,Cave Mountain,http://www.wcc.nrcs.usda.gov/nwcc/site?sitenum=1152,14K08S,KALN2,8.000000000000000
snotel,"417",1978-10-01,2100-01-01,40.280000000000001,-115.530000000000001,"8500",Snow Water Equivalent,NV,Elko,Corral Creek,Corral Canyon,http://www.wcc.nrcs.usda.gov/nwcc/site?sitenum=417,15J12S,COLN2,8.000000000000000
snotel,"443",1983-10-01,2100-01-01,39.560000000000002,-115.840000000000003,"8033",Snow Water Equivalent,NV,White Pine,Torre Creek-Slough Creek-Frontal Diamond Valley,Diamond Peak,http://www.wcc.nrcs.usda.gov/nwcc/site?sitenum=443,15K03S,DPKN2,8.000000000000000
snotel,"445",1979-10-01,2100-01-01,41.969999999999999,-118.189999999999998,"6500",Snow Water Equivalent,NV,Humboldt,Sage Creek,Disaster Peak,http://www.wcc.nrcs.usda.gov/nwcc/site?sitenum=445,18H01S,DSPN2,8.000000000000000
snotel,"453",1978-10-01,2100-01-01,40.890000000000001,-115.200000000000003,"8100",Snow Water Equivalent,NV,Elko,Lower Secret Creek,Dorsey Basin,http://www.wcc.nrcs.usda.gov/nwcc/site?sitenum=453,15J01S,DRBN2,8.000000000000000
snotel,"454",1982-10-01,2100-01-01,41.659999999999997,-115.319999999999993,"7200",Snow Water Equivalent,NV,Elko,Upper T Creek,Draw Creek,http://www.wcc.nrcs.usda.gov/nwcc/site?sitenum=454,15H24S,DRCN2,8.000000000000000
snotel,"1243",2013-07-08,2100-01-01,40.859999999999999,-115.219999999999999,"6500",Snow Water Equivalent,NV,Elko,Upper Secret Creek,Dry Creek,http://www.wcc.nrcs.usda.gov/nwcc/site?sitenum=1243,15j03S,DRKN2,8.000000000000000
snotel,"476",1979-10-01,2100-01-01,41.820000000000000,-116.099999999999994,"7000",Snow Water Equivalent,NV,Elko,Fawn Creek-Owyhee River,Fawn Creek,http://www.wcc.nrcs.usda.gov/nwcc/site?sitenum=476,16H08S,FWCN2,8.000000000000000
